[
  {
    "ogc_fid": 1,
    "cig": "1832 - 1109",
    "nombre": "VEREDA PUERTO RICO - VELEZ",
    "lng": -73.76176136768811,
    "lat": 6.516879333113531
  },
  {
    "ogc_fid": 2,
    "cig": "1825 - 1109",
    "nombre": "VEREDA VISTA HERMOSA - VELEZ",
    "lng": -73.68368104479445,
    "lat": 6.431643047708965
  },
  {
    "ogc_fid": 3,
    "cig": "1646 - 1109",
    "nombre": "VEREDA SAN ISIDRO - VELEZ",
    "lng": -73.63824153622564,
    "lat": 6.430596431639419
  },
  {
    "ogc_fid": 4,
    "cig": "1826 - 1109",
    "nombre": "VEREDA SAN IGNACIO - VELEZ",
    "lng": -73.67637778526168,
    "lat": 6.402022997323475
  },
  {
    "ogc_fid": 5,
    "cig": "1823 - 1109",
    "nombre": "VEREDA SAN PEDRO - VELEZ",
    "lng": -73.69072676262142,
    "lat": 6.377461710261495
  },
  {
    "ogc_fid": 6,
    "cig": "1573 - 1109",
    "nombre": "VEREDA BOCAS - VELEZ",
    "lng": -73.67496488083748,
    "lat": 6.358977232314502
  },
  {
    "ogc_fid": 7,
    "cig": "1574 - 1109",
    "nombre": "VEREDA TROCHAS - VELEZ",
    "lng": -73.68478120994673,
    "lat": 6.3312512752220345
  },
  {
    "ogc_fid": 8,
    "cig": "1824 - 1109",
    "nombre": "VEREDA EL TAGUAL - VELEZ",
    "lng": -73.71500480926952,
    "lat": 6.338241623461459
  },
  {
    "ogc_fid": 9,
    "cig": "1666 - 1109",
    "nombre": "VEREDA SARDINAS BAJA - VELEZ",
    "lng": -73.65787970341572,
    "lat": 6.392272718819785
  },
  {
    "ogc_fid": 10,
    "cig": "1827 - 1109",
    "nombre": "VEREDA LA TABLONA - VELEZ",
    "lng": -73.6699940918453,
    "lat": 6.4569275142447955
  },
  {
    "ogc_fid": 11,
    "cig": "1641 - 1109",
    "nombre": "VEREDA PALO DE CUCHES - VELEZ",
    "lng": -73.64456891065723,
    "lat": 6.4778678152563565
  },
  {
    "ogc_fid": 12,
    "cig": "1828 - 1109",
    "nombre": "VEREDA QUEBRADA LARGA - VELEZ",
    "lng": -73.70404762040725,
    "lat": 6.462830849532095
  },
  {
    "ogc_fid": 13,
    "cig": "1831 - 1109",
    "nombre": "VEREDA CA?O BONITO - VELEZ",
    "lng": -73.7327235265665,
    "lat": 6.492046271513114
  },
  {
    "ogc_fid": 14,
    "cig": "1830 - 1109",
    "nombre": "VEREDA SAN JOSE - VELEZ",
    "lng": -73.70370042264275,
    "lat": 6.49189292636993
  },
  {
    "ogc_fid": 15,
    "cig": "1829 - 1109",
    "nombre": "VEREDA MIRADOR - VELEZ",
    "lng": -73.72764438325186,
    "lat": 6.460235891577898
  },
  {
    "ogc_fid": 16,
    "cig": "1181 - 1109",
    "nombre": "VEREDA LA MILITOSA - VELEZ",
    "lng": -73.79722165371714,
    "lat": 6.5904102486279745
  },
  {
    "ogc_fid": 17,
    "cig": "1132 - 1109",
    "nombre": "VEREDA SAN PEDRO OPON - VELEZ",
    "lng": -73.7275305818046,
    "lat": 6.359622740047452
  },
  {
    "ogc_fid": 18,
    "cig": "1130 - 1109",
    "nombre": "VEREDA EL TAGUAL - VELEZ",
    "lng": -73.708232943513,
    "lat": 6.393887152920896
  },
  {
    "ogc_fid": 19,
    "cig": "1128 - 1109",
    "nombre": "VEREDA PITALITO - VELEZ",
    "lng": -73.7086471841567,
    "lat": 6.411730737100088
  },
  {
    "ogc_fid": 20,
    "cig": "1127 - 1109",
    "nombre": "VEREDA QUEBRADA LARGA - VELEZ",
    "lng": -73.72759027740254,
    "lat": 6.430526766097563
  },
  {
    "ogc_fid": 21,
    "cig": "1126 - 1109",
    "nombre": "VEREDA RIO BLANCO - VELEZ",
    "lng": -73.79108727709306,
    "lat": 6.414645203944545
  },
  {
    "ogc_fid": 22,
    "cig": "1125 - 1109",
    "nombre": "VEREDA CHONTORALES - VELEZ",
    "lng": -73.81921346934836,
    "lat": 6.507814368802128
  },
  {
    "ogc_fid": 23,
    "cig": "2551 - 1109",
    "nombre": "VEREDA MOYA JOVINA - VELEZ",
    "lng": -73.76168611689475,
    "lat": 6.585216460253395
  },
  {
    "ogc_fid": 24,
    "cig": "2548 - 1109",
    "nombre": "VEREDA EL GUAMO - VELEZ",
    "lng": -73.71146266134497,
    "lat": 6.540378512180364
  },
  {
    "ogc_fid": 25,
    "cig": "2547 - 1109",
    "nombre": "VEREDA LA HONDA - VELEZ",
    "lng": -73.66153831281301,
    "lat": 6.514473515991261
  },
  {
    "ogc_fid": 26,
    "cig": "1493 - 1109",
    "nombre": "VEREDA EL PEDREGAL - VELEZ",
    "lng": -73.74811550253365,
    "lat": 5.988350335691589
  },
  {
    "ogc_fid": 27,
    "cig": "1797 - 1109",
    "nombre": "VEREDA HATO SANTA BARBARA - VELEZ",
    "lng": -73.71281372355075,
    "lat": 5.98858600103045
  },
  {
    "ogc_fid": 28,
    "cig": "1798 - 1109",
    "nombre": "VEREDA LAGUNETAS BAJO - VELEZ",
    "lng": -73.69650326025369,
    "lat": 5.983127262229164
  },
  {
    "ogc_fid": 29,
    "cig": "1793 - 1109",
    "nombre": "VEREDA LA CAPILLA - VELEZ",
    "lng": -73.6736611440769,
    "lat": 5.982890633848884
  },
  {
    "ogc_fid": 30,
    "cig": "1789 - 1109",
    "nombre": "VEREDA EL LIMON - VELEZ",
    "lng": -73.65894295323476,
    "lat": 5.993004150979836
  },
  {
    "ogc_fid": 31,
    "cig": "1794 - 1109",
    "nombre": "VEREDA TUN-TUN - VELEZ",
    "lng": -73.6855985445959,
    "lat": 5.992680086145312
  },
  {
    "ogc_fid": 32,
    "cig": "1506 - 1109",
    "nombre": "VEREDA PUENTES Y NARANJOS - VELEZ",
    "lng": -73.67906617728723,
    "lat": 5.944685325602271
  },
  {
    "ogc_fid": 33,
    "cig": "1505 - 1109",
    "nombre": "VEREDA TRES ESQUINAS - VELEZ",
    "lng": -73.67567224177783,
    "lat": 5.9272679636796415
  },
  {
    "ogc_fid": 34,
    "cig": "1791 - 1109",
    "nombre": "VEREDA DOCTRINA NARANJOS - VELEZ",
    "lng": -73.67900278808105,
    "lat": 5.9669114406245045
  },
  {
    "ogc_fid": 35,
    "cig": "1792 - 1109",
    "nombre": "VEREDA DOCTRINA PORTACHUELO - VELEZ",
    "lng": -73.66756552069681,
    "lat": 5.956650752708036
  },
  {
    "ogc_fid": 36,
    "cig": "1494 - 1109",
    "nombre": "VEREDA HELECHAL Y MESA - VELEZ",
    "lng": -73.7229312240639,
    "lat": 5.975645908437349
  },
  {
    "ogc_fid": 37,
    "cig": "1475 - 1109",
    "nombre": "VEREDA BUENAVISTA - VELEZ",
    "lng": -73.65113026779382,
    "lat": 5.939082813960367
  },
  {
    "ogc_fid": 38,
    "cig": "1790 - 1109",
    "nombre": "VEREDA ACO DE PENA BLANCA - VELEZ",
    "lng": -73.658660472452,
    "lat": 5.960251398256809
  },
  {
    "ogc_fid": 39,
    "cig": "1508 - 1109",
    "nombre": "VEREDA SAN RAFAEL - VELEZ",
    "lng": -73.69051401849909,
    "lat": 5.959505732337108
  },
  {
    "ogc_fid": 40,
    "cig": "1788 - 1109",
    "nombre": "VEREDA SAN VICENTE - VELEZ",
    "lng": -73.64196354754853,
    "lat": 5.98449871865066
  },
  {
    "ogc_fid": 41,
    "cig": "1787 - 1109",
    "nombre": "VEREDA SAN PABLO - VELEZ",
    "lng": -73.62622379973871,
    "lat": 5.995725895842093
  },
  {
    "ogc_fid": 42,
    "cig": "1816 - 1109",
    "nombre": "VEREDA LA ESPERANZA - VELEZ",
    "lng": -73.75513242143289,
    "lat": 6.1981588753078025
  },
  {
    "ogc_fid": 43,
    "cig": "1818 - 1109",
    "nombre": "VEREDA SAN BENITO - VELEZ",
    "lng": -73.75664442345862,
    "lat": 6.176842629534871
  },
  {
    "ogc_fid": 44,
    "cig": "1811 - 1109",
    "nombre": "VEREDA SANTA ROSA - VELEZ",
    "lng": -73.69685754035521,
    "lat": 6.1916757495884465
  },
  {
    "ogc_fid": 45,
    "cig": "1814 - 1109",
    "nombre": "VEREDA EL RECREO - VELEZ",
    "lng": -73.69644384060874,
    "lat": 6.22628265165909
  },
  {
    "ogc_fid": 46,
    "cig": "1815 - 1109",
    "nombre": "VEREDA LAS PALMAS - VELEZ",
    "lng": -73.72873562432356,
    "lat": 6.209774133202546
  },
  {
    "ogc_fid": 47,
    "cig": "1584 - 1109",
    "nombre": "VEREDA EL RECREO - VELEZ",
    "lng": -73.63770837739752,
    "lat": 6.19775411650733
  },
  {
    "ogc_fid": 48,
    "cig": "1801 - 1109",
    "nombre": "VEREDA PENA GRANDE - VELEZ",
    "lng": -73.70226708755527,
    "lat": 6.006857388008838
  },
  {
    "ogc_fid": 49,
    "cig": "1783 - 1109",
    "nombre": "VEREDA LOS EJIDOS - VELEZ",
    "lng": -73.65162426055869,
    "lat": 6.005643419047741
  },
  {
    "ogc_fid": 50,
    "cig": "1809 - 1109",
    "nombre": "VEREDA ZARANDAS - VELEZ",
    "lng": -73.67613695805375,
    "lat": 6.131428164556476
  },
  {
    "ogc_fid": 51,
    "cig": "1781 - 1109",
    "nombre": "VEREDA TUBAVITA - VELEZ",
    "lng": -73.67010226977708,
    "lat": 6.025599979142414
  },
  {
    "ogc_fid": 52,
    "cig": "1834 - 1109",
    "nombre": "VELEZ URBANO - VELEZ",
    "lng": -73.67201395538787,
    "lat": 6.012717924194122
  },
  {
    "ogc_fid": 53,
    "cig": "1585 - 1109",
    "nombre": "VEREDA COLON - VELEZ",
    "lng": -73.65656365110776,
    "lat": 6.168634335067692
  },
  {
    "ogc_fid": 54,
    "cig": "1808 - 1109",
    "nombre": "VEREDA HELIDA - VELEZ",
    "lng": -73.70578135653398,
    "lat": 6.112560899390298
  },
  {
    "ogc_fid": 55,
    "cig": "1802 - 1109",
    "nombre": "VEREDA PENA TAMBOR - VELEZ",
    "lng": -73.68781862827903,
    "lat": 6.026213632315165
  },
  {
    "ogc_fid": 56,
    "cig": "1795 - 1109",
    "nombre": "VEREDA EL AMARILLO - VELEZ",
    "lng": -73.68522687639751,
    "lat": 6.009809800909284
  },
  {
    "ogc_fid": 57,
    "cig": "1813 - 1109",
    "nombre": "VEREDA CAMPO HERMOSO - VELEZ",
    "lng": -73.74211391464816,
    "lat": 6.190053165446809
  },
  {
    "ogc_fid": 58,
    "cig": "1817 - 1109",
    "nombre": "VEREDA RIONEGRO CASCAJERO - VELEZ",
    "lng": -73.72962957741618,
    "lat": 6.153579244487093
  },
  {
    "ogc_fid": 59,
    "cig": "1812 - 1109",
    "nombre": "VEREDA EL GUALILO - VELEZ",
    "lng": -73.72049240475057,
    "lat": 6.181245806719644
  },
  {
    "ogc_fid": 60,
    "cig": "1810 - 1109",
    "nombre": "VEREDA CUBA - VELEZ",
    "lng": -73.70070026870097,
    "lat": 6.1600458902903945
  },
  {
    "ogc_fid": 61,
    "cig": "1807 - 1109",
    "nombre": "VEREDA ABISINIA - VELEZ",
    "lng": -73.71666592769719,
    "lat": 6.095563130076606
  },
  {
    "ogc_fid": 62,
    "cig": "1806 - 1109",
    "nombre": "VEREDA LLANADAS - VELEZ",
    "lng": -73.73542170946699,
    "lat": 6.087394312344397
  },
  {
    "ogc_fid": 63,
    "cig": "1805 - 1109",
    "nombre": "VEREDA TEBAIDA - VELEZ",
    "lng": -73.72594450145863,
    "lat": 6.056556178862888
  },
  {
    "ogc_fid": 64,
    "cig": "1803 - 1109",
    "nombre": "VEREDA PALO BLANCO - VELEZ",
    "lng": -73.70587587070892,
    "lat": 6.042963760493625
  },
  {
    "ogc_fid": 65,
    "cig": "1784 - 1109",
    "nombre": "VEREDA LOMALTA - VELEZ",
    "lng": -73.64063460350476,
    "lat": 6.016065696183461
  },
  {
    "ogc_fid": 66,
    "cig": "1782 - 1109",
    "nombre": "VEREDA LA PALMERA - VELEZ",
    "lng": -73.6573804542796,
    "lat": 6.018843798316838
  },
  {
    "ogc_fid": 67,
    "cig": "1592 - 1109",
    "nombre": "VEREDA CASAS BLANCAS - VELEZ",
    "lng": -73.61294160694915,
    "lat": 6.130085614213662
  },
  {
    "ogc_fid": 68,
    "cig": "1487 - 1109",
    "nombre": "VEREDA TOROBA - VELEZ",
    "lng": -73.61980428291689,
    "lat": 6.031418058129346
  },
  {
    "ogc_fid": 69,
    "cig": "1488 - 1109",
    "nombre": "VEREDA MIRABUENOS - VELEZ",
    "lng": -73.64312032671782,
    "lat": 6.028991365133391
  },
  {
    "ogc_fid": 70,
    "cig": "1479 - 1109",
    "nombre": "VEREDA LLANO DE SAN JUAN - VELEZ",
    "lng": -73.63970296655312,
    "lat": 6.112483287746084
  },
  {
    "ogc_fid": 71,
    "cig": "1575 - 1109",
    "nombre": "VEREDA LA COMPANIA - VELEZ",
    "lng": -73.70102823200129,
    "lat": 6.307088623309896
  },
  {
    "ogc_fid": 72,
    "cig": "1576 - 1109",
    "nombre": "VEREDA MIRABUENOS - VELEZ",
    "lng": -73.68207401981758,
    "lat": 6.280949927255952
  },
  {
    "ogc_fid": 73,
    "cig": "1582 - 1109",
    "nombre": "VEREDA MACANAL - VELEZ",
    "lng": -73.66227833187433,
    "lat": 6.2284839852390945
  },
  {
    "ogc_fid": 74,
    "cig": "1822 - 1109",
    "nombre": "VEREDA MANTELLINA ALTA - VELEZ",
    "lng": -73.71763490330255,
    "lat": 6.235961938246717
  },
  {
    "ogc_fid": 75,
    "cig": "1833 - 1109",
    "nombre": "VEREDA LA SOLEDAD - VELEZ",
    "lng": -73.73437045588739,
    "lat": 6.303079482042979
  },
  {
    "ogc_fid": 76,
    "cig": "1820 - 1109",
    "nombre": "VEREDA ALTAMIRA - VELEZ",
    "lng": -73.71932525027883,
    "lat": 6.2845401388455695
  },
  {
    "ogc_fid": 77,
    "cig": "1821 - 1109",
    "nombre": "VEREDA MANTELLINA BAJA - VELEZ",
    "lng": -73.72703700116364,
    "lat": 6.2609468632836505
  },
  {
    "ogc_fid": 78,
    "cig": "1819 - 1109",
    "nombre": "VEREDA LIMONCITO - VELEZ",
    "lng": -73.70531645519304,
    "lat": 6.261486707850278
  },
  {
    "ogc_fid": 79,
    "cig": "3352 - 1109",
    "nombre": "VEREDA LA LAGUNA - VELEZ",
    "lng": -73.74760212098364,
    "lat": 6.077863659798042
  },
  {
    "ogc_fid": 80,
    "cig": "3359 - 1109",
    "nombre": "VEREDA PLATANILLO - VELEZ",
    "lng": -73.74915298269697,
    "lat": 6.085447476477234
  },
  {
    "ogc_fid": 81,
    "cig": "3360 - 1109",
    "nombre": "VEREDA MONTECRISTO - VELEZ",
    "lng": -73.77684243672331,
    "lat": 6.181114377489401
  },
  {
    "ogc_fid": 82,
    "cig": "3386 - 1109",
    "nombre": "VEREDA FUNCIA - VELEZ",
    "lng": -73.74369390577385,
    "lat": 6.012497613130399
  },
  {
    "ogc_fid": 83,
    "cig": "3387 - 1109",
    "nombre": "VEREDA TURE - VELEZ",
    "lng": -73.72972007465717,
    "lat": 6.029156718535584
  },
  {
    "ogc_fid": 84,
    "cig": "3388 - 1109",
    "nombre": "VEREDA MOCHILIRO - VELEZ",
    "lng": -73.74606528122018,
    "lat": 6.039855273148754
  },
  {
    "ogc_fid": 85,
    "cig": "3390 - 1109",
    "nombre": "VEREDA EL PALMAR - VELEZ",
    "lng": -73.74566314856644,
    "lat": 6.060562364169207
  },
  {
    "ogc_fid": 86,
    "cig": "3394 - 1109",
    "nombre": "VEREDA PORTACHUELO - VELEZ",
    "lng": -73.7565866698473,
    "lat": 6.090822925337574
  },
  {
    "ogc_fid": 87,
    "cig": "3399 - 1109",
    "nombre": "VEREDA LA RESINA - VELEZ",
    "lng": -73.75468542569308,
    "lat": 6.10589858320871
  },
  {
    "ogc_fid": 88,
    "cig": "3403 - 1109",
    "nombre": "VEREDA SAN ROQUE - VELEZ",
    "lng": -73.74310932895798,
    "lat": 6.133390227646859
  },
  {
    "ogc_fid": 89,
    "cig": "3448 - 1109",
    "nombre": "VEREDA CARTAGENA - VELEZ",
    "lng": -73.77497527893048,
    "lat": 6.197045204293041
  },
  {
    "ogc_fid": 90,
    "cig": "3451 - 1109",
    "nombre": "VEREDA FLORES - VELEZ",
    "lng": -73.76150210125014,
    "lat": 6.160974849511909
  },
  {
    "ogc_fid": 91,
    "cig": "1515 - 1109",
    "nombre": "VEREDA PLATANAL - VELEZ",
    "lng": -73.59007546876472,
    "lat": 6.02960227252396
  },
  {
    "ogc_fid": 92,
    "cig": "1518 - 1109",
    "nombre": "VEREDA SONESI - VELEZ",
    "lng": -73.60339598237584,
    "lat": 6.008315504539582
  },
  {
    "ogc_fid": 93,
    "cig": "1786 - 1109",
    "nombre": "VEREDA ROPERO - VELEZ",
    "lng": -73.61138891090098,
    "lat": 6.019493634026623
  },
  {
    "ogc_fid": 94,
    "cig": "1785 - 1109",
    "nombre": "VEREDA GUAYABAL - VELEZ",
    "lng": -73.62818481814554,
    "lat": 6.007615970218011
  },
  {
    "ogc_fid": 95,
    "cig": "1804 - 1109",
    "nombre": "VEREDA GAITAL - VELEZ",
    "lng": -73.68227637698958,
    "lat": 6.084958341026592
  },
  {
    "ogc_fid": 96,
    "cig": "1490 - 1109",
    "nombre": "VEREDA TUBAVITA - VELEZ",
    "lng": -73.67115619497437,
    "lat": 6.0386536623251486
  },
  {
    "ogc_fid": 97,
    "cig": "1800 - 1109",
    "nombre": "VEREDA MONTE OSCURO - VELEZ",
    "lng": -73.71209670487019,
    "lat": 6.020257233271698
  },
  {
    "ogc_fid": 98,
    "cig": "1142 - 1109",
    "nombre": "VEREDA BAJO JORDAN - VELEZ",
    "lng": -73.74818333746242,
    "lat": 6.221393957779282
  },
  {
    "ogc_fid": 99,
    "cig": "1140 - 1109",
    "nombre": "VEREDA LA GUAYABITA - VELEZ",
    "lng": -73.74413723269917,
    "lat": 6.249999857876297
  },
  {
    "ogc_fid": 100,
    "cig": "1138 - 1109",
    "nombre": "VEREDA YOLANDAS - VELEZ",
    "lng": -73.74701281552903,
    "lat": 6.273408121478054
  },
  {
    "ogc_fid": 101,
    "cig": "1137 - 1109",
    "nombre": "VEREDA VALPARAISO - VELEZ",
    "lng": -73.77078460327404,
    "lat": 6.283146148738271
  },
  {
    "ogc_fid": 102,
    "cig": "1135 - 1109",
    "nombre": "VEREDA MIRALINDO - VELEZ",
    "lng": -73.77492477664457,
    "lat": 6.314518490189427
  },
  {
    "ogc_fid": 103,
    "cig": "1799 - 1109",
    "nombre": "VEREDA EL UVITO - VELEZ",
    "lng": -73.72778833451478,
    "lat": 6.0005429986889505
  },
  {
    "ogc_fid": 104,
    "cig": "1796 - 1109",
    "nombre": "VEREDA LOS LAURELES - VELEZ",
    "lng": -73.68027580248994,
    "lat": 6.003948700596408
  },
  {
    "ogc_fid": 105,
    "cig": "1759 - 1744",
    "nombre": "VEREDA LA MESA - ALBANIA",
    "lng": -73.82638537582811,
    "lat": 5.785460730503033
  },
  {
    "ogc_fid": 106,
    "cig": "1778 - 1744",
    "nombre": "CENTRO POBLADO LA MESA - ALBANIA",
    "lng": -73.82696846804532,
    "lat": 5.780076384090553
  },
  {
    "ogc_fid": 107,
    "cig": "1761 - 1744",
    "nombre": "VEREDA UVALES - ALBANIA",
    "lng": -73.83221225529017,
    "lat": 5.763236696979339
  },
  {
    "ogc_fid": 108,
    "cig": "1767 - 1744",
    "nombre": "VEREDA CANOAS - ALBANIA",
    "lng": -73.89697020769961,
    "lat": 5.773308817331359
  },
  {
    "ogc_fid": 109,
    "cig": "1760 - 1744",
    "nombre": "VEREDA ALTAMIRA - ALBANIA",
    "lng": -73.8499356588164,
    "lat": 5.777814613250418
  },
  {
    "ogc_fid": 110,
    "cig": "1764 - 1744",
    "nombre": "VEREDA MESA GRANDE - ALBANIA",
    "lng": -73.86734444532237,
    "lat": 5.75100940169592
  },
  {
    "ogc_fid": 111,
    "cig": "1766 - 1744",
    "nombre": "VEREDA PLAYAS - ALBANIA",
    "lng": -73.88257090759708,
    "lat": 5.756977459380259
  },
  {
    "ogc_fid": 112,
    "cig": "1772 - 1744",
    "nombre": "VEREDA HONDA - ALBANIA",
    "lng": -73.9152985606446,
    "lat": 5.777999628047786
  },
  {
    "ogc_fid": 113,
    "cig": "1756 - 1744",
    "nombre": "VEREDA SANTA RITA - ALBANIA",
    "lng": -73.81145740916278,
    "lat": 5.790935823744092
  },
  {
    "ogc_fid": 114,
    "cig": "1757 - 1744",
    "nombre": "VEREDA MEDIOS - ALBANIA",
    "lng": -73.79715799136864,
    "lat": 5.791579848174736
  },
  {
    "ogc_fid": 115,
    "cig": "1775 - 1744",
    "nombre": "VEREDA SAN PABLO - ALBANIA",
    "lng": -73.95062443130357,
    "lat": 5.743883669187988
  },
  {
    "ogc_fid": 116,
    "cig": "1765 - 1744",
    "nombre": "VEREDA GUACOS - ALBANIA",
    "lng": -73.85623212871815,
    "lat": 5.736052767511589
  },
  {
    "ogc_fid": 117,
    "cig": "1768 - 1744",
    "nombre": "VEREDA CHEBRE - ALBANIA",
    "lng": -73.89339631355885,
    "lat": 5.762584471364507
  },
  {
    "ogc_fid": 118,
    "cig": "1773 - 1744",
    "nombre": "VEREDA SALITRE - ALBANIA",
    "lng": -73.92884809018513,
    "lat": 5.760079813002573
  },
  {
    "ogc_fid": 119,
    "cig": "1770 - 1744",
    "nombre": "VEREDA MOCHILA - ALBANIA",
    "lng": -73.91772189980829,
    "lat": 5.745948478163876
  },
  {
    "ogc_fid": 120,
    "cig": "1774 - 1744",
    "nombre": "VEREDA POVEDA - ALBANIA",
    "lng": -73.93371130250729,
    "lat": 5.747729810227367
  },
  {
    "ogc_fid": 121,
    "cig": "1771 - 1744",
    "nombre": "ALBANIA URBANO - ALBANIA",
    "lng": -73.91412881084241,
    "lat": 5.758298472476494
  },
  {
    "ogc_fid": 122,
    "cig": "1769 - 1744",
    "nombre": "VEREDA CANUTILLO - ALBANIA",
    "lng": -73.903046402428,
    "lat": 5.748816165084334
  },
  {
    "ogc_fid": 123,
    "cig": "1762 - 1744",
    "nombre": "VEREDA PAN DE AZUCAR - ALBANIA",
    "lng": -73.8237656547263,
    "lat": 5.750051694378201
  },
  {
    "ogc_fid": 124,
    "cig": "1779 - 1744",
    "nombre": "CENTRO POBLADO GUACOS - ALBANIA",
    "lng": -73.8506300839186,
    "lat": 5.751501214065763
  },
  {
    "ogc_fid": 125,
    "cig": "1758 - 1744",
    "nombre": "VEREDA SABANETA - ALBANIA",
    "lng": -73.79295784205655,
    "lat": 5.760462172677144
  },
  {
    "ogc_fid": 126,
    "cig": "1763 - 1744",
    "nombre": "VEREDA AYACUCHO - ALBANIA",
    "lng": -73.80802823032299,
    "lat": 5.733764511144891
  },
  {
    "ogc_fid": 127,
    "cig": "1531 - 1744",
    "nombre": "VEREDA CABRERA BAJA - ALBANIA",
    "lng": -73.82761329685523,
    "lat": 5.813675318762061
  },
  {
    "ogc_fid": 128,
    "cig": "3683 - 1744",
    "nombre": "VEREDA SAN JOSE DE LA MESA - ALBANIA",
    "lng": -73.84657697988301,
    "lat": 5.797490156207442
  },
  {
    "ogc_fid": 129,
    "cig": "3684 - 1744",
    "nombre": "VEREDA ENCENILLO - ALBANIA",
    "lng": -73.8649752048789,
    "lat": 5.809753623022195
  },
  {
    "ogc_fid": 130,
    "cig": "3685 - 1744",
    "nombre": "VEREDA COLORADA - ALBANIA",
    "lng": -73.87088518818165,
    "lat": 5.7912112817240065
  },
  {
    "ogc_fid": 131,
    "cig": "3687 - 1744",
    "nombre": "VEREDA LA VENTA - ALBANIA",
    "lng": -73.89010841672027,
    "lat": 5.797050541208526
  },
  {
    "ogc_fid": 132,
    "cig": "3690 - 1744",
    "nombre": "VEREDA SANTA LUCIA - ALBANIA",
    "lng": -73.9108718194145,
    "lat": 5.8020788948277815
  },
  {
    "ogc_fid": 133,
    "cig": "3693 - 1744",
    "nombre": "VEREDA ANTONIO - ALBANIA",
    "lng": -73.93394205820042,
    "lat": 5.787592410342268
  },
  {
    "ogc_fid": 134,
    "cig": "3695 - 1744",
    "nombre": "VEREDA LEONES - ALBANIA",
    "lng": -73.93894533372769,
    "lat": 5.762926412790002
  },
  {
    "ogc_fid": 135,
    "cig": "3696 - 1744",
    "nombre": "VEREDA MOPORA - ALBANIA",
    "lng": -73.9665551707809,
    "lat": 5.7452969357001615
  },
  {
    "ogc_fid": 136,
    "cig": "3823 - 1744",
    "nombre": "VEREDA CHIQUINQUIRA - ALBANIA",
    "lng": -73.8101333406166,
    "lat": 5.626999434970296
  },
  {
    "ogc_fid": 137,
    "cig": "3826 - 1744",
    "nombre": "VEREDA SABOYA - ALBANIA",
    "lng": -73.7500210019333,
    "lat": 5.698328997718192
  },
  {
    "ogc_fid": 138,
    "cig": "1750 - 1744",
    "nombre": "VEREDA GUAYABAL - ALBANIA",
    "lng": -73.79558865135348,
    "lat": 5.828177156050186
  },
  {
    "ogc_fid": 139,
    "cig": "1755 - 1744",
    "nombre": "VEREDA PUEBLO VIEJO - ALBANIA",
    "lng": -73.78119282817545,
    "lat": 5.7859100442470615
  },
  {
    "ogc_fid": 140,
    "cig": "1754 - 1744",
    "nombre": "VEREDA EL TABLON - ALBANIA",
    "lng": -73.76852793523578,
    "lat": 5.781536956559296
  },
  {
    "ogc_fid": 141,
    "cig": "1749 - 1744",
    "nombre": "VEREDA CARRETERO - ALBANIA",
    "lng": -73.77270870644263,
    "lat": 5.840956959289568
  },
  {
    "ogc_fid": 142,
    "cig": "1776 - 1744",
    "nombre": "CENTRO POBLADO CARRETERO - ALBANIA",
    "lng": -73.77298187519365,
    "lat": 5.8343325448848296
  },
  {
    "ogc_fid": 143,
    "cig": "1752 - 1744",
    "nombre": "VEREDA POTREROS - ALBANIA",
    "lng": -73.78422382232354,
    "lat": 5.819547456971432
  },
  {
    "ogc_fid": 144,
    "cig": "1751 - 1744",
    "nombre": "VEREDA PANTANOS - ALBANIA",
    "lng": -73.77947481236635,
    "lat": 5.825860214054556
  },
  {
    "ogc_fid": 145,
    "cig": "1777 - 1744",
    "nombre": "CENTRO POBLADO HATILLO - ALBANIA",
    "lng": -73.77013551252062,
    "lat": 5.810849324634631
  },
  {
    "ogc_fid": 146,
    "cig": "1614 - 1744",
    "nombre": "VEREDA CULEBRILLA - ALBANIA",
    "lng": -73.72470088658082,
    "lat": 5.847755301801495
  },
  {
    "ogc_fid": 147,
    "cig": "1622 - 1744",
    "nombre": "VEREDA PETAQUEROS - ALBANIA",
    "lng": -73.73599698397545,
    "lat": 5.8243186127637765
  },
  {
    "ogc_fid": 148,
    "cig": "1623 - 1744",
    "nombre": "VEREDA MEDIOS - ALBANIA",
    "lng": -73.73788992648892,
    "lat": 5.807418419918731
  },
  {
    "ogc_fid": 149,
    "cig": "1746 - 1744",
    "nombre": "VEREDA AGUACATE - ALBANIA",
    "lng": -73.74628529742074,
    "lat": 5.854527457865489
  },
  {
    "ogc_fid": 150,
    "cig": "1747 - 1744",
    "nombre": "VEREDA CORDONCILLAL - ALBANIA",
    "lng": -73.76115721309388,
    "lat": 5.858566039420845
  },
  {
    "ogc_fid": 151,
    "cig": "1748 - 1744",
    "nombre": "VEREDA UTAPA - ALBANIA",
    "lng": -73.75523789131579,
    "lat": 5.8326026656080465
  },
  {
    "ogc_fid": 152,
    "cig": "1610 - 1744",
    "nombre": "VEREDA POPOA SUR - ALBANIA",
    "lng": -73.73451023376741,
    "lat": 5.885446007488526
  },
  {
    "ogc_fid": 153,
    "cig": "1753 - 1744",
    "nombre": "VEREDA EL HATILLO - ALBANIA",
    "lng": -73.76648704444231,
    "lat": 5.804306223130526
  },
  {
    "ogc_fid": 154,
    "cig": "1527 - 1744",
    "nombre": "VEREDA BRAVO PAEZ - ALBANIA",
    "lng": -73.76995827115749,
    "lat": 5.868758827144518
  },
  {
    "ogc_fid": 155,
    "cig": "1529 - 1744",
    "nombre": "VEREDA CRISTALES - ALBANIA",
    "lng": -73.79730162436374,
    "lat": 5.851025837307299
  },
  {
    "ogc_fid": 156,
    "cig": "1530 - 1744",
    "nombre": "VEREDA LADERAS - ALBANIA",
    "lng": -73.82201202918455,
    "lat": 5.832383301074139
  },
  {
    "ogc_fid": 157,
    "cig": "3871 - 1744",
    "nombre": "VEREDA TUNUNGUA - ALBANIA",
    "lng": -73.9329528720048,
    "lat": 5.722534387237064
  },
  {
    "ogc_fid": 158,
    "cig": "1756 - 1101",
    "nombre": "VEREDA SANTA RITA - JESUS MARIA",
    "lng": -73.81145740916278,
    "lat": 5.790935823744092
  },
  {
    "ogc_fid": 159,
    "cig": "1531 - 1101",
    "nombre": "VEREDA CABRERA BAJA - JESUS MARIA",
    "lng": -73.82761329685523,
    "lat": 5.813675318762061
  },
  {
    "ogc_fid": 160,
    "cig": "3683 - 1101",
    "nombre": "VEREDA SAN JOSE DE LA MESA - JESUS MARIA",
    "lng": -73.84657697988301,
    "lat": 5.797490156207442
  },
  {
    "ogc_fid": 161,
    "cig": "3684 - 1101",
    "nombre": "VEREDA ENCENILLO - JESUS MARIA",
    "lng": -73.8649752048789,
    "lat": 5.809753623022195
  },
  {
    "ogc_fid": 162,
    "cig": "1734 - 1101",
    "nombre": "VEREDA CUCHINA I - JESUS MARIA",
    "lng": -73.78742608267117,
    "lat": 5.912134902566049
  },
  {
    "ogc_fid": 163,
    "cig": "1524 - 1101",
    "nombre": "VEREDA ANGOSTURA - JESUS MARIA",
    "lng": -73.79306065861145,
    "lat": 5.891469536603208
  },
  {
    "ogc_fid": 164,
    "cig": "1526 - 1101",
    "nombre": "JESUS MARIA URBANO - JESUS MARIA",
    "lng": -73.78344757093888,
    "lat": 5.876505294480172
  },
  {
    "ogc_fid": 165,
    "cig": "1750 - 1101",
    "nombre": "VEREDA GUAYABAL - JESUS MARIA",
    "lng": -73.79558865135348,
    "lat": 5.828177156050186
  },
  {
    "ogc_fid": 166,
    "cig": "1525 - 1101",
    "nombre": "VEREDA ARCINIEGAS - JESUS MARIA",
    "lng": -73.7965986794874,
    "lat": 5.879483546797079
  },
  {
    "ogc_fid": 167,
    "cig": "1521 - 1101",
    "nombre": "VEREDA ALTO GRANDE - JESUS MARIA",
    "lng": -73.75863739192113,
    "lat": 5.885408075230449
  },
  {
    "ogc_fid": 168,
    "cig": "1522 - 1101",
    "nombre": "VEREDA SANTA ROSA DE LOS AIRES - JESUS MARIA",
    "lng": -73.77040689230326,
    "lat": 5.897934056829114
  },
  {
    "ogc_fid": 169,
    "cig": "1731 - 1101",
    "nombre": "VEREDA HELECHALES - JESUS MARIA",
    "lng": -73.76801788168167,
    "lat": 5.914953487120199
  },
  {
    "ogc_fid": 170,
    "cig": "1500 - 1101",
    "nombre": "VEREDA MERCADILLO - JESUS MARIA",
    "lng": -73.73770205709639,
    "lat": 5.915795518893866
  },
  {
    "ogc_fid": 171,
    "cig": "1746 - 1101",
    "nombre": "VEREDA AGUACATE - JESUS MARIA",
    "lng": -73.74628529742074,
    "lat": 5.854527457865489
  },
  {
    "ogc_fid": 172,
    "cig": "1747 - 1101",
    "nombre": "VEREDA CORDONCILLAL - JESUS MARIA",
    "lng": -73.76115721309388,
    "lat": 5.858566039420845
  },
  {
    "ogc_fid": 173,
    "cig": "1610 - 1101",
    "nombre": "VEREDA POPOA SUR - JESUS MARIA",
    "lng": -73.73451023376741,
    "lat": 5.885446007488526
  },
  {
    "ogc_fid": 174,
    "cig": "1527 - 1101",
    "nombre": "VEREDA BRAVO PAEZ - JESUS MARIA",
    "lng": -73.76995827115749,
    "lat": 5.868758827144518
  },
  {
    "ogc_fid": 175,
    "cig": "1523 - 1101",
    "nombre": "VEREDA SANTA ROSA ALTO CRUCES - JESUS MARIA",
    "lng": -73.78075481854542,
    "lat": 5.897114110838202
  },
  {
    "ogc_fid": 176,
    "cig": "1533 - 1101",
    "nombre": "VEREDA AGUA FRIA - JESUS MARIA",
    "lng": -73.86034270787162,
    "lat": 5.839816065303665
  },
  {
    "ogc_fid": 177,
    "cig": "1740 - 1101",
    "nombre": "VEREDA CAMPO HERMOSO - JESUS MARIA",
    "lng": -73.87132488191324,
    "lat": 5.868393736454208
  },
  {
    "ogc_fid": 178,
    "cig": "1741 - 1101",
    "nombre": "VEREDA CHICORIA - JESUS MARIA",
    "lng": -73.8545078510658,
    "lat": 5.873321003773896
  },
  {
    "ogc_fid": 179,
    "cig": "1535 - 1101",
    "nombre": "VEREDA CAMPO HERMOSO - JESUS MARIA",
    "lng": -73.88301017032711,
    "lat": 5.860996200787509
  },
  {
    "ogc_fid": 180,
    "cig": "1529 - 1101",
    "nombre": "VEREDA CRISTALES - JESUS MARIA",
    "lng": -73.79730162436374,
    "lat": 5.851025837307299
  },
  {
    "ogc_fid": 181,
    "cig": "1532 - 1101",
    "nombre": "VEREDA CABRERA ALTA - JESUS MARIA",
    "lng": -73.8446956221472,
    "lat": 5.81801889551576
  },
  {
    "ogc_fid": 182,
    "cig": "1530 - 1101",
    "nombre": "VEREDA LADERAS - JESUS MARIA",
    "lng": -73.82201202918455,
    "lat": 5.832383301074139
  },
  {
    "ogc_fid": 183,
    "cig": "1528 - 1101",
    "nombre": "VEREDA EL OSCURO - JESUS MARIA",
    "lng": -73.81438142918053,
    "lat": 5.858066258183631
  },
  {
    "ogc_fid": 184,
    "cig": "1743 - 1101",
    "nombre": "VEREDA CAFETO - JESUS MARIA",
    "lng": -73.83920105364048,
    "lat": 5.85455845776885
  },
  {
    "ogc_fid": 185,
    "cig": "1742 - 1101",
    "nombre": "VEREDA CARARITO - JESUS MARIA",
    "lng": -73.82754718178398,
    "lat": 5.865796287960493
  },
  {
    "ogc_fid": 186,
    "cig": "1735 - 1101",
    "nombre": "VEREDA EL HOYO - JESUS MARIA",
    "lng": -73.81260642922811,
    "lat": 5.886837418928247
  },
  {
    "ogc_fid": 187,
    "cig": "3686 - 1101",
    "nombre": "VEREDA VENTA DE COLES - JESUS MARIA",
    "lng": -73.88728576574177,
    "lat": 5.826313896580374
  },
  {
    "ogc_fid": 188,
    "cig": "1522 - 1108",
    "nombre": "VEREDA SANTA ROSA DE LOS AIRES - SUCRE",
    "lng": -73.77040689230326,
    "lat": 5.897934056829114
  },
  {
    "ogc_fid": 189,
    "cig": "1731 - 1108",
    "nombre": "VEREDA HELECHALES - SUCRE",
    "lng": -73.76801788168167,
    "lat": 5.914953487120199
  },
  {
    "ogc_fid": 190,
    "cig": "1499 - 1108",
    "nombre": "VEREDA LA UNION - SUCRE",
    "lng": -73.7574843440994,
    "lat": 5.928619197387804
  },
  {
    "ogc_fid": 191,
    "cig": "1723 - 1108",
    "nombre": "VEREDA CLAVELLINOS - SUCRE",
    "lng": -73.78513324026834,
    "lat": 5.934782748689135
  },
  {
    "ogc_fid": 192,
    "cig": "1523 - 1108",
    "nombre": "VEREDA SANTA ROSA ALTO CRUCES - SUCRE",
    "lng": -73.78075481854542,
    "lat": 5.897114110838202
  },
  {
    "ogc_fid": 193,
    "cig": "1724 - 1108",
    "nombre": "VEREDA CALLEJON I - SUCRE",
    "lng": -73.77648041308821,
    "lat": 5.929524166208442
  },
  {
    "ogc_fid": 194,
    "cig": "3375 - 1108",
    "nombre": "VEREDA LA PENA - SUCRE",
    "lng": -73.78413666807505,
    "lat": 5.943124912949287
  },
  {
    "ogc_fid": 195,
    "cig": "3377 - 1108",
    "nombre": "VEREDA GAVILAN - SUCRE",
    "lng": -73.77182259715529,
    "lat": 5.944751130610131
  },
  {
    "ogc_fid": 196,
    "cig": "1733 - 1108",
    "nombre": "SUCRE URBANO - SUCRE",
    "lng": -73.79121861757785,
    "lat": 5.9183528440653745
  },
  {
    "ogc_fid": 197,
    "cig": "1734 - 1108",
    "nombre": "VEREDA CUCHINA I - SUCRE",
    "lng": -73.78742608267117,
    "lat": 5.912134902566049
  },
  {
    "ogc_fid": 198,
    "cig": "3365 - 1108",
    "nombre": "VEREDA LAGUNILLAS DIAMANTE - SUCRE",
    "lng": -73.79409939090542,
    "lat": 5.9530986698829
  },
  {
    "ogc_fid": 199,
    "cig": "3364 - 1108",
    "nombre": "VEREDA PLAN DE ROJAS - SUCRE",
    "lng": -73.80225343801858,
    "lat": 5.952874506548329
  },
  {
    "ogc_fid": 200,
    "cig": "1525 - 1108",
    "nombre": "VEREDA ARCINIEGAS - SUCRE",
    "lng": -73.7965986794874,
    "lat": 5.879483546797079
  },
  {
    "ogc_fid": 201,
    "cig": "1569 - 1108",
    "nombre": "VEREDA ABARCO O CAMPO VANDA - SUCRE",
    "lng": -74.12918269792263,
    "lat": 5.980029254443699
  },
  {
    "ogc_fid": 202,
    "cig": "1568 - 1108",
    "nombre": "VEREDA LA TIPA - SUCRE",
    "lng": -74.11927478317342,
    "lat": 5.907640448922328
  },
  {
    "ogc_fid": 203,
    "cig": "1543 - 1108",
    "nombre": "VEREDA RODEO - SUCRE",
    "lng": -73.95414609117701,
    "lat": 5.92423093885763
  },
  {
    "ogc_fid": 204,
    "cig": "1541 - 1108",
    "nombre": "VEREDA SITIO NUEVO - SUCRE",
    "lng": -73.94919319186415,
    "lat": 5.873928408805409
  },
  {
    "ogc_fid": 205,
    "cig": "1707 - 1108",
    "nombre": "VEREDA EL DIAMANTE - SUCRE",
    "lng": -73.97535005520182,
    "lat": 5.952870184055933
  },
  {
    "ogc_fid": 206,
    "cig": "1700 - 1108",
    "nombre": "VEREDA BUENAVISTA - SUCRE",
    "lng": -73.94885934621853,
    "lat": 6.0082867685660855
  },
  {
    "ogc_fid": 207,
    "cig": "1684 - 1108",
    "nombre": "VEREDA ARALES - SUCRE",
    "lng": -73.95734461642567,
    "lat": 6.05376032705931
  },
  {
    "ogc_fid": 208,
    "cig": "1699 - 1108",
    "nombre": "VEREDA SAN JOSE - SUCRE",
    "lng": -73.96959765430772,
    "lat": 6.005177395714564
  },
  {
    "ogc_fid": 209,
    "cig": "1713 - 1108",
    "nombre": "VEREDA LIBANO - SUCRE",
    "lng": -73.9525912041718,
    "lat": 5.941773444919753
  },
  {
    "ogc_fid": 210,
    "cig": "1706 - 1108",
    "nombre": "VEREDA QUEBRADA LARGA - SUCRE",
    "lng": -73.94249335477129,
    "lat": 5.978803461639819
  },
  {
    "ogc_fid": 211,
    "cig": "1689 - 1108",
    "nombre": "VEREDA UNION NARANJITO - SUCRE",
    "lng": -73.96199361325539,
    "lat": 6.025182192924161
  },
  {
    "ogc_fid": 212,
    "cig": "1570 - 1108",
    "nombre": "VEREDA PESCADO - SUCRE",
    "lng": -74.11551042960774,
    "lat": 6.0040224145465855
  },
  {
    "ogc_fid": 213,
    "cig": "1678 - 1108",
    "nombre": "VEREDA EL PESCADO - SUCRE",
    "lng": -74.09507866886284,
    "lat": 6.022974980996796
  },
  {
    "ogc_fid": 214,
    "cig": "1698 - 1108",
    "nombre": "VEREDA LA FLORESTA - SUCRE",
    "lng": -73.9748523320499,
    "lat": 5.9907316227798475
  },
  {
    "ogc_fid": 215,
    "cig": "1696 - 1108",
    "nombre": "VEREDA EL PORVENIR - SUCRE",
    "lng": -74.0048328637519,
    "lat": 5.990778893063389
  },
  {
    "ogc_fid": 216,
    "cig": "1690 - 1108",
    "nombre": "VEREDA SANTA HELENA - SUCRE",
    "lng": -73.99282908397822,
    "lat": 6.01218474898081
  },
  {
    "ogc_fid": 217,
    "cig": "1692 - 1108",
    "nombre": "VEREDA ALTO TESORITO - SUCRE",
    "lng": -74.03343922907818,
    "lat": 5.997635641662175
  },
  {
    "ogc_fid": 218,
    "cig": "1691 - 1108",
    "nombre": "VEREDA CAMPO ALEGRE - SUCRE",
    "lng": -74.0147281855981,
    "lat": 6.010913271700495
  },
  {
    "ogc_fid": 219,
    "cig": "1681 - 1108",
    "nombre": "VEREDA ALTO MINERO - SUCRE",
    "lng": -74.06927391538827,
    "lat": 5.981038233078091
  },
  {
    "ogc_fid": 220,
    "cig": "1693 - 1108",
    "nombre": "VEREDA INDOSTAN - SUCRE",
    "lng": -74.0427194033035,
    "lat": 5.978604113137867
  },
  {
    "ogc_fid": 221,
    "cig": "1682 - 1108",
    "nombre": "VEREDA VILLANUEVA - SUCRE",
    "lng": -74.08361066526722,
    "lat": 5.947226965634461
  },
  {
    "ogc_fid": 222,
    "cig": "1561 - 1108",
    "nombre": "VEREDA INDOSTAL - SUCRE",
    "lng": -74.01933645081913,
    "lat": 5.968727548665847
  },
  {
    "ogc_fid": 223,
    "cig": "1560 - 1108",
    "nombre": "VEREDA SAN ANTONIO - SUCRE",
    "lng": -73.997657303139,
    "lat": 5.955928872078027
  },
  {
    "ogc_fid": 224,
    "cig": "1559 - 1108",
    "nombre": "VEREDA CANDELARIA - SUCRE",
    "lng": -73.99585494060634,
    "lat": 5.926943634459438
  },
  {
    "ogc_fid": 225,
    "cig": "1695 - 1108",
    "nombre": "CENTRO POBLADO EL PORVENIR - SUCRE",
    "lng": -74.01011971312477,
    "lat": 5.987471923435976
  },
  {
    "ogc_fid": 226,
    "cig": "1697 - 1108",
    "nombre": "VEREDA EL PALMAR - SUCRE",
    "lng": -73.98241022023471,
    "lat": 5.9753150304575255
  },
  {
    "ogc_fid": 227,
    "cig": "1694 - 1108",
    "nombre": "VEREDA LA PAVA - SUCRE",
    "lng": -74.01366375058517,
    "lat": 5.981892933380475
  },
  {
    "ogc_fid": 228,
    "cig": "1680 - 1108",
    "nombre": "VEREDA LA PALMARONA - SUCRE",
    "lng": -74.04179986782539,
    "lat": 6.032066628909108
  },
  {
    "ogc_fid": 229,
    "cig": "1677 - 1108",
    "nombre": "VEREDA LA PEDREGOSA - SUCRE",
    "lng": -74.07662859429448,
    "lat": 6.049782867728864
  },
  {
    "ogc_fid": 230,
    "cig": "1675 - 1108",
    "nombre": "VEREDA MATA DE GUADUA - SUCRE",
    "lng": -74.07833256468062,
    "lat": 6.093471159009295
  },
  {
    "ogc_fid": 231,
    "cig": "1674 - 1108",
    "nombre": "VEREDA CAOBA - SUCRE",
    "lng": -74.064336769837,
    "lat": 6.1279406768734175
  },
  {
    "ogc_fid": 232,
    "cig": "1676 - 1108",
    "nombre": "VEREDA LA YUMBILA - SUCRE",
    "lng": -74.09508794889585,
    "lat": 6.067729669117117
  },
  {
    "ogc_fid": 233,
    "cig": "1685 - 1108",
    "nombre": "VEREDA LOMA DE CANDELA - SUCRE",
    "lng": -73.98797158516163,
    "lat": 6.048431847115134
  },
  {
    "ogc_fid": 234,
    "cig": "1679 - 1108",
    "nombre": "VEREDA EL FILO - LA CUCHILLA - SUCRE",
    "lng": -74.01407204549233,
    "lat": 6.062483881389782
  },
  {
    "ogc_fid": 235,
    "cig": "1686 - 1108",
    "nombre": "VEREDA GUALILO - SUCRE",
    "lng": -74.00972839537768,
    "lat": 6.034674653893527
  },
  {
    "ogc_fid": 236,
    "cig": "1704 - 1108",
    "nombre": "VEREDA ESPERANZA - SUCRE",
    "lng": -73.92214204735747,
    "lat": 6.013424155892852
  },
  {
    "ogc_fid": 237,
    "cig": "1703 - 1108",
    "nombre": "VEREDA MONTE BELLO - SUCRE",
    "lng": -73.89580419083588,
    "lat": 5.998405969329798
  },
  {
    "ogc_fid": 238,
    "cig": "1702 - 1108",
    "nombre": "VEREDA ALTO JAZMIN - SUCRE",
    "lng": -73.86361387229493,
    "lat": 6.004778095252424
  },
  {
    "ogc_fid": 239,
    "cig": "1705 - 1108",
    "nombre": "VEREDA BAJO CENTRO - SUCRE",
    "lng": -73.9249212853905,
    "lat": 5.997323401613938
  },
  {
    "ogc_fid": 240,
    "cig": "1533 - 1108",
    "nombre": "VEREDA AGUA FRIA - SUCRE",
    "lng": -73.86034270787162,
    "lat": 5.839816065303665
  },
  {
    "ogc_fid": 241,
    "cig": "1740 - 1108",
    "nombre": "VEREDA CAMPO HERMOSO - SUCRE",
    "lng": -73.87132488191324,
    "lat": 5.868393736454208
  },
  {
    "ogc_fid": 242,
    "cig": "1741 - 1108",
    "nombre": "VEREDA CHICORIA - SUCRE",
    "lng": -73.8545078510658,
    "lat": 5.873321003773896
  },
  {
    "ogc_fid": 243,
    "cig": "1721 - 1108",
    "nombre": "VEREDA ARCABUCO - SUCRE",
    "lng": -73.84880072007724,
    "lat": 5.947531980725025
  },
  {
    "ogc_fid": 244,
    "cig": "1715 - 1108",
    "nombre": "VEREDA ASTILLERO - SUCRE",
    "lng": -73.86244180301706,
    "lat": 5.967011993652763
  },
  {
    "ogc_fid": 245,
    "cig": "1737 - 1108",
    "nombre": "VEREDA RETIRO - SUCRE",
    "lng": -73.8796157245404,
    "lat": 5.891096505260464
  },
  {
    "ogc_fid": 246,
    "cig": "1728 - 1108",
    "nombre": "VEREDA PABELLON - SUCRE",
    "lng": -73.8672470588324,
    "lat": 5.926595356472244
  },
  {
    "ogc_fid": 247,
    "cig": "1710 - 1108",
    "nombre": "VEREDA CEDRITOS - SUCRE",
    "lng": -73.87016018043984,
    "lat": 5.978220176085488
  },
  {
    "ogc_fid": 248,
    "cig": "1537 - 1108",
    "nombre": "VEREDA FUNCIAL - SUCRE",
    "lng": -73.92511166738649,
    "lat": 5.848605093930895
  },
  {
    "ogc_fid": 249,
    "cig": "1535 - 1108",
    "nombre": "VEREDA CAMPO HERMOSO - SUCRE",
    "lng": -73.88301017032711,
    "lat": 5.860996200787509
  },
  {
    "ogc_fid": 250,
    "cig": "1727 - 1108",
    "nombre": "VEREDA SELVA - SUCRE",
    "lng": -73.88707012021618,
    "lat": 5.911141144445333
  },
  {
    "ogc_fid": 251,
    "cig": "1739 - 1108",
    "nombre": "CENTRO POBLADO LA PRADERA - SUCRE",
    "lng": -73.9106577107339,
    "lat": 5.867276020588687
  },
  {
    "ogc_fid": 252,
    "cig": "1708 - 1108",
    "nombre": "CENTRO POBLADO SABANAGRANDE - SUCRE",
    "lng": -73.9135147020604,
    "lat": 5.989291399143686
  },
  {
    "ogc_fid": 253,
    "cig": "1730 - 1108",
    "nombre": "VEREDA OJO DE AGUA - SUCRE",
    "lng": -73.924400725162,
    "lat": 5.8825616811350105
  },
  {
    "ogc_fid": 254,
    "cig": "1738 - 1108",
    "nombre": "VEREDA PRADERA - SUCRE",
    "lng": -73.91205121734313,
    "lat": 5.870042297186394
  },
  {
    "ogc_fid": 255,
    "cig": "1729 - 1108",
    "nombre": "VEREDA VICTORIA - SUCRE",
    "lng": -73.91214705539119,
    "lat": 5.911403741406531
  },
  {
    "ogc_fid": 256,
    "cig": "1717 - 1108",
    "nombre": "VEREDA BAJO CELMIRA - SUCRE",
    "lng": -73.89896833106853,
    "lat": 5.938995154805006
  },
  {
    "ogc_fid": 257,
    "cig": "1716 - 1108",
    "nombre": "VEREDA ALTO CELMIRA - SUCRE",
    "lng": -73.89045926330257,
    "lat": 5.9570670971707145
  },
  {
    "ogc_fid": 258,
    "cig": "1714 - 1108",
    "nombre": "VEREDA LA PALMA - SUCRE",
    "lng": -73.92130778579656,
    "lat": 5.941249241616444
  },
  {
    "ogc_fid": 259,
    "cig": "1711 - 1108",
    "nombre": "VEREDA QUITIANES - SUCRE",
    "lng": -73.89978985641979,
    "lat": 5.978119839543337
  },
  {
    "ogc_fid": 260,
    "cig": "1712 - 1108",
    "nombre": "VEREDA SAN ISIDRO - SUCRE",
    "lng": -73.91538554279668,
    "lat": 5.965691802243667
  },
  {
    "ogc_fid": 261,
    "cig": "1709 - 1108",
    "nombre": "VEREDA BAJO JAZMIN - SUCRE",
    "lng": -73.88338316330399,
    "lat": 5.9826071270032815
  },
  {
    "ogc_fid": 262,
    "cig": "1528 - 1108",
    "nombre": "VEREDA EL OSCURO - SUCRE",
    "lng": -73.81438142918053,
    "lat": 5.858066258183631
  },
  {
    "ogc_fid": 263,
    "cig": "1743 - 1108",
    "nombre": "VEREDA CAFETO - SUCRE",
    "lng": -73.83920105364048,
    "lat": 5.85455845776885
  },
  {
    "ogc_fid": 264,
    "cig": "1742 - 1108",
    "nombre": "VEREDA CARARITO - SUCRE",
    "lng": -73.82754718178398,
    "lat": 5.865796287960493
  },
  {
    "ogc_fid": 265,
    "cig": "1735 - 1108",
    "nombre": "VEREDA EL HOYO - SUCRE",
    "lng": -73.81260642922811,
    "lat": 5.886837418928247
  },
  {
    "ogc_fid": 266,
    "cig": "1736 - 1108",
    "nombre": "VEREDA PENA BLANCA - SUCRE",
    "lng": -73.83946751177754,
    "lat": 5.8888726229923
  },
  {
    "ogc_fid": 267,
    "cig": "1732 - 1108",
    "nombre": "VEREDA ORGANOS - SUCRE",
    "lng": -73.82039018349762,
    "lat": 5.907521270252943
  },
  {
    "ogc_fid": 268,
    "cig": "1722 - 1108",
    "nombre": "VEREDA CALLEJON II - SUCRE",
    "lng": -73.80793366289292,
    "lat": 5.943676135852335
  },
  {
    "ogc_fid": 269,
    "cig": "1726 - 1108",
    "nombre": "VEREDA LAGUNA NEGRA - SUCRE",
    "lng": -73.83037534416243,
    "lat": 5.924285453757924
  },
  {
    "ogc_fid": 270,
    "cig": "1701 - 1108",
    "nombre": "VEREDA PANAMA - SUCRE",
    "lng": -73.88977438820416,
    "lat": 6.025226933460657
  },
  {
    "ogc_fid": 271,
    "cig": "1687 - 1108",
    "nombre": "VEREDA GAITAL - SUCRE",
    "lng": -73.9057624731788,
    "lat": 6.0499684738811235
  },
  {
    "ogc_fid": 272,
    "cig": "1683 - 1108",
    "nombre": "VEREDA BUENA ESPERANZA - SUCRE",
    "lng": -73.93087026166455,
    "lat": 6.076606377216565
  },
  {
    "ogc_fid": 273,
    "cig": "1688 - 1108",
    "nombre": "VEREDA HOYA DE POBRE - FILO ROPERO - SUCRE",
    "lng": -73.92634254957424,
    "lat": 6.03640237198995
  },
  {
    "ogc_fid": 274,
    "cig": "1725 - 1108",
    "nombre": "VEREDA CUCHINA II - SUCRE",
    "lng": -73.80326912586168,
    "lat": 5.925837412874554
  },
  {
    "ogc_fid": 275,
    "cig": "3195 - 1108",
    "nombre": "VEREDA BOCAS DEL HORTA - SUCRE",
    "lng": -74.01568128549499,
    "lat": 6.154334410709491
  },
  {
    "ogc_fid": 276,
    "cig": "3196 - 1108",
    "nombre": "VEREDA BAJO CEIBA - SUCRE",
    "lng": -73.976827930137,
    "lat": 6.110800600666587
  },
  {
    "ogc_fid": 277,
    "cig": "3207 - 1108",
    "nombre": "VEREDA HOYO DE PANAMA - SUCRE",
    "lng": -73.87145906908412,
    "lat": 6.044928364315988
  },
  {
    "ogc_fid": 278,
    "cig": "3217 - 1108",
    "nombre": "VEREDA HONDURAS - SUCRE",
    "lng": -73.81632572211026,
    "lat": 6.028835473262787
  },
  {
    "ogc_fid": 279,
    "cig": "1719 - 1108",
    "nombre": "CENTRO POBLADO LA GRANJA - SUCRE",
    "lng": -73.9201197608059,
    "lat": 5.926204995449224
  },
  {
    "ogc_fid": 280,
    "cig": "1718 - 1108",
    "nombre": "VEREDA UNION - SUCRE",
    "lng": -73.907901978971,
    "lat": 5.925042307309909
  },
  {
    "ogc_fid": 281,
    "cig": "1720 - 1108",
    "nombre": "VEREDA SAN MIGUEL - SUCRE",
    "lng": -73.92064921396768,
    "lat": 5.903491819834484
  },
  {
    "ogc_fid": 282,
    "cig": "3363 - 1108",
    "nombre": "VEREDA CRISTALES - SUCRE",
    "lng": -73.82139247967662,
    "lat": 5.963791926054542
  },
  {
    "ogc_fid": 283,
    "cig": "3421 - 1108",
    "nombre": "VEREDA AUYAMERA - SUCRE",
    "lng": -74.10718642508031,
    "lat": 6.181648127487409
  },
  {
    "ogc_fid": 284,
    "cig": "3423 - 1108",
    "nombre": "VEREDA ZARCA - SUCRE",
    "lng": -74.1236085071712,
    "lat": 6.141920281084028
  },
  {
    "ogc_fid": 285,
    "cig": "3424 - 1108",
    "nombre": "VEREDA PUERTO ARENA - SUCRE",
    "lng": -74.1414463918537,
    "lat": 6.087381077221269
  },
  {
    "ogc_fid": 286,
    "cig": "3426 - 1108",
    "nombre": "VEREDA ARENA ALTA - SUCRE",
    "lng": -74.1535746004798,
    "lat": 6.035445148023776
  },
  {
    "ogc_fid": 287,
    "cig": "3435 - 1108",
    "nombre": "VEREDA EL TRAPAL - SUCRE",
    "lng": -73.83297047823598,
    "lat": 5.994488510328827
  },
  {
    "ogc_fid": 288,
    "cig": "3440 - 1108",
    "nombre": "VEREDA PUERTO PACHECO - SUCRE",
    "lng": -74.07437673325272,
    "lat": 6.173334026957237
  },
  {
    "ogc_fid": 289,
    "cig": "1542 - 1108",
    "nombre": "VEREDA BERLIN - SUCRE",
    "lng": -73.954287959364,
    "lat": 5.9079853280321775
  },
  {
    "ogc_fid": 290,
    "cig": "3201 - 1108",
    "nombre": "VEREDA SAN ANTONIO - SUCRE",
    "lng": -73.888173809321,
    "lat": 6.07951565506775
  },
  {
    "ogc_fid": 291,
    "cig": "3198 - 1108",
    "nombre": "VEREDA OTOVAL - SUCRE",
    "lng": -73.90225350974481,
    "lat": 6.103657489791574
  },
  {
    "ogc_fid": 292,
    "cig": "3751 - 1103",
    "nombre": "VEREDA BOYACA - LA BELLEZA",
    "lng": -73.14574318046535,
    "lat": 5.6626579215407125
  },
  {
    "ogc_fid": 293,
    "cig": "4071 - 1103",
    "nombre": "CENTRO POBLADO EL LIBANO - LA BELLEZA",
    "lng": -74.01580896848543,
    "lat": 5.87052558656854
  },
  {
    "ogc_fid": 294,
    "cig": "1571 - 1103",
    "nombre": "VEREDA CEIBA - LA BELLEZA",
    "lng": -74.15072611079067,
    "lat": 5.938805932707516
  },
  {
    "ogc_fid": 295,
    "cig": "1569 - 1103",
    "nombre": "VEREDA ABARCO O CAMPO VANDA - LA BELLEZA",
    "lng": -74.12918269792263,
    "lat": 5.980029254443699
  },
  {
    "ogc_fid": 296,
    "cig": "1568 - 1103",
    "nombre": "VEREDA LA TIPA - LA BELLEZA",
    "lng": -74.11927478317342,
    "lat": 5.907640448922328
  },
  {
    "ogc_fid": 297,
    "cig": "1543 - 1103",
    "nombre": "VEREDA RODEO - LA BELLEZA",
    "lng": -73.95414609117701,
    "lat": 5.92423093885763
  },
  {
    "ogc_fid": 298,
    "cig": "1541 - 1103",
    "nombre": "VEREDA SITIO NUEVO - LA BELLEZA",
    "lng": -73.94919319186415,
    "lat": 5.873928408805409
  },
  {
    "ogc_fid": 299,
    "cig": "1538 - 1103",
    "nombre": "VEREDA VILLA HERMOSA - LA BELLEZA",
    "lng": -73.94791942546442,
    "lat": 5.853526486976287
  },
  {
    "ogc_fid": 300,
    "cig": "1707 - 1103",
    "nombre": "VEREDA EL DIAMANTE - LA BELLEZA",
    "lng": -73.97535005520182,
    "lat": 5.952870184055933
  },
  {
    "ogc_fid": 301,
    "cig": "1713 - 1103",
    "nombre": "VEREDA LIBANO - LA BELLEZA",
    "lng": -73.9525912041718,
    "lat": 5.941773444919753
  },
  {
    "ogc_fid": 302,
    "cig": "1570 - 1103",
    "nombre": "VEREDA PESCADO - LA BELLEZA",
    "lng": -74.11551042960774,
    "lat": 6.0040224145465855
  },
  {
    "ogc_fid": 303,
    "cig": "1678 - 1103",
    "nombre": "VEREDA EL PESCADO - LA BELLEZA",
    "lng": -74.09507866886284,
    "lat": 6.022974980996796
  },
  {
    "ogc_fid": 304,
    "cig": "1681 - 1103",
    "nombre": "VEREDA ALTO MINERO - LA BELLEZA",
    "lng": -74.06927391538827,
    "lat": 5.981038233078091
  },
  {
    "ogc_fid": 305,
    "cig": "1564 - 1103",
    "nombre": "VEREDA GRANADINA - LA BELLEZA",
    "lng": -74.03693281108298,
    "lat": 5.936921574784961
  },
  {
    "ogc_fid": 306,
    "cig": "1566 - 1103",
    "nombre": "VEREDA EL TESORO - LA BELLEZA",
    "lng": -74.05908612624857,
    "lat": 5.920720899435216
  },
  {
    "ogc_fid": 307,
    "cig": "1555 - 1103",
    "nombre": "VEREDA EL RUBI - LA BELLEZA",
    "lng": -74.05167255720545,
    "lat": 5.889009901727206
  },
  {
    "ogc_fid": 308,
    "cig": "1553 - 1103",
    "nombre": "VEREDA MONTEBELLO - LA BELLEZA",
    "lng": -74.06797485686643,
    "lat": 5.876116040387776
  },
  {
    "ogc_fid": 309,
    "cig": "1547 - 1103",
    "nombre": "VEREDA NARANJOS - LA BELLEZA",
    "lng": -74.04755919528571,
    "lat": 5.850720816195245
  },
  {
    "ogc_fid": 310,
    "cig": "1693 - 1103",
    "nombre": "VEREDA INDOSTAN - LA BELLEZA",
    "lng": -74.0427194033035,
    "lat": 5.978604113137867
  },
  {
    "ogc_fid": 311,
    "cig": "1682 - 1103",
    "nombre": "VEREDA VILLANUEVA - LA BELLEZA",
    "lng": -74.08361066526722,
    "lat": 5.947226965634461
  },
  {
    "ogc_fid": 312,
    "cig": "1552 - 1103",
    "nombre": "VEREDA BUENAVISTA - LA BELLEZA",
    "lng": -74.08368505585409,
    "lat": 5.859798344030569
  },
  {
    "ogc_fid": 313,
    "cig": "1567 - 1103",
    "nombre": "VEREDA LOS VALLES - LA BELLEZA",
    "lng": -74.08709958865182,
    "lat": 5.900625422731738
  },
  {
    "ogc_fid": 314,
    "cig": "1561 - 1103",
    "nombre": "VEREDA INDOSTAL - LA BELLEZA",
    "lng": -74.01933645081913,
    "lat": 5.968727548665847
  },
  {
    "ogc_fid": 315,
    "cig": "1560 - 1103",
    "nombre": "VEREDA SAN ANTONIO - LA BELLEZA",
    "lng": -73.997657303139,
    "lat": 5.955928872078027
  },
  {
    "ogc_fid": 316,
    "cig": "1559 - 1103",
    "nombre": "VEREDA CANDELARIA - LA BELLEZA",
    "lng": -73.99585494060634,
    "lat": 5.926943634459438
  },
  {
    "ogc_fid": 317,
    "cig": "1557 - 1103",
    "nombre": "VEREDA LA MARGELINA - LA BELLEZA",
    "lng": -74.00834364988303,
    "lat": 5.899540120582615
  },
  {
    "ogc_fid": 318,
    "cig": "1556 - 1103",
    "nombre": "VEREDA SINAGOGA BAJA - LA BELLEZA",
    "lng": -74.02625327799836,
    "lat": 5.886956842186433
  },
  {
    "ogc_fid": 319,
    "cig": "1550 - 1103",
    "nombre": "VEREDA SINAGOGA ALTA - LA BELLEZA",
    "lng": -74.01081270637196,
    "lat": 5.8703580433709535
  },
  {
    "ogc_fid": 320,
    "cig": "1549 - 1103",
    "nombre": "VEREDA COSTA RICA - LA BELLEZA",
    "lng": -73.99152307538668,
    "lat": 5.8698446642441695
  },
  {
    "ogc_fid": 321,
    "cig": "1558 - 1103",
    "nombre": "VEREDA LA HUMAREDA - LA BELLEZA",
    "lng": -73.97594998815379,
    "lat": 5.9054573629550715
  },
  {
    "ogc_fid": 322,
    "cig": "1544 - 1103",
    "nombre": "VEREDA SAILAN - LA BELLEZA",
    "lng": -73.977104314922,
    "lat": 5.8497917541336175
  },
  {
    "ogc_fid": 323,
    "cig": "1539 - 1103",
    "nombre": "VEREDA CENTRO - LA BELLEZA",
    "lng": -73.96343424679732,
    "lat": 5.85277818442604
  },
  {
    "ogc_fid": 324,
    "cig": "1563 - 1103",
    "nombre": "CENTRO POBLADO LA QUITAZ - LA BELLEZA",
    "lng": -74.01016359262103,
    "lat": 5.934554632503488
  },
  {
    "ogc_fid": 325,
    "cig": "1551 - 1103",
    "nombre": "VEREDA PALACIOS - LA BELLEZA",
    "lng": -73.97662706400176,
    "lat": 5.881750324315341
  },
  {
    "ogc_fid": 326,
    "cig": "1545 - 1103",
    "nombre": "VEREDA SAN CAYETANO - LA BELLEZA",
    "lng": -73.99100218870592,
    "lat": 5.84814622120845
  },
  {
    "ogc_fid": 327,
    "cig": "1546 - 1103",
    "nombre": "VEREDA LA PLAYA - LA BELLEZA",
    "lng": -74.00992184346282,
    "lat": 5.842243525961387
  },
  {
    "ogc_fid": 328,
    "cig": "1548 - 1103",
    "nombre": "VEREDA CACHIPAYAL - LA BELLEZA",
    "lng": -74.02577976890821,
    "lat": 5.854828727665168
  },
  {
    "ogc_fid": 329,
    "cig": "1554 - 1103",
    "nombre": "VEREDA SINAI - LA BELLEZA",
    "lng": -74.03747628275522,
    "lat": 5.874981066364492
  },
  {
    "ogc_fid": 330,
    "cig": "1565 - 1103",
    "nombre": "VEREDA SAN SALVADOR - LA BELLEZA",
    "lng": -74.03601814851677,
    "lat": 5.9085278730192154
  },
  {
    "ogc_fid": 331,
    "cig": "1697 - 1103",
    "nombre": "VEREDA EL PALMAR - LA BELLEZA",
    "lng": -73.98241022023471,
    "lat": 5.9753150304575255
  },
  {
    "ogc_fid": 332,
    "cig": "1694 - 1103",
    "nombre": "VEREDA LA PAVA - LA BELLEZA",
    "lng": -74.01366375058517,
    "lat": 5.981892933380475
  },
  {
    "ogc_fid": 333,
    "cig": "1740 - 1103",
    "nombre": "VEREDA CAMPO HERMOSO - LA BELLEZA",
    "lng": -73.87132488191324,
    "lat": 5.868393736454208
  },
  {
    "ogc_fid": 334,
    "cig": "1737 - 1103",
    "nombre": "VEREDA RETIRO - LA BELLEZA",
    "lng": -73.8796157245404,
    "lat": 5.891096505260464
  },
  {
    "ogc_fid": 335,
    "cig": "1537 - 1103",
    "nombre": "VEREDA FUNCIAL - LA BELLEZA",
    "lng": -73.92511166738649,
    "lat": 5.848605093930895
  },
  {
    "ogc_fid": 336,
    "cig": "1535 - 1103",
    "nombre": "VEREDA CAMPO HERMOSO - LA BELLEZA",
    "lng": -73.88301017032711,
    "lat": 5.860996200787509
  },
  {
    "ogc_fid": 337,
    "cig": "1536 - 1103",
    "nombre": "VEREDA CAMPO HERMOSO BAJO - LA BELLEZA",
    "lng": -73.90081987227906,
    "lat": 5.848199038919028
  },
  {
    "ogc_fid": 338,
    "cig": "1730 - 1103",
    "nombre": "VEREDA OJO DE AGUA - LA BELLEZA",
    "lng": -73.924400725162,
    "lat": 5.8825616811350105
  },
  {
    "ogc_fid": 339,
    "cig": "1738 - 1103",
    "nombre": "VEREDA PRADERA - LA BELLEZA",
    "lng": -73.91205121734313,
    "lat": 5.870042297186394
  },
  {
    "ogc_fid": 340,
    "cig": "1562 - 1103",
    "nombre": "VEREDA LA QUITAZ - LA BELLEZA",
    "lng": -74.01935578083723,
    "lat": 5.937391809400195
  },
  {
    "ogc_fid": 341,
    "cig": "1720 - 1103",
    "nombre": "VEREDA SAN MIGUEL - LA BELLEZA",
    "lng": -73.92064921396768,
    "lat": 5.903491819834484
  },
  {
    "ogc_fid": 342,
    "cig": "3425 - 1103",
    "nombre": "VEREDA PENA ARIZA - LA BELLEZA",
    "lng": -74.19030500048888,
    "lat": 5.986718701038278
  },
  {
    "ogc_fid": 343,
    "cig": "3426 - 1103",
    "nombre": "VEREDA ARENA ALTA - LA BELLEZA",
    "lng": -74.1535746004798,
    "lat": 6.035445148023776
  },
  {
    "ogc_fid": 344,
    "cig": "3428 - 1103",
    "nombre": "VEREDA NUEVO MUNDO - LA BELLEZA",
    "lng": -74.20813023959845,
    "lat": 5.8924606609943275
  },
  {
    "ogc_fid": 345,
    "cig": "1542 - 1103",
    "nombre": "VEREDA BERLIN - LA BELLEZA",
    "lng": -73.954287959364,
    "lat": 5.9079853280321775
  },
  {
    "ogc_fid": 346,
    "cig": "3689 - 1103",
    "nombre": "VEREDA SANTA ROSA - LA BELLEZA",
    "lng": -73.90860065141482,
    "lat": 5.824838771013827
  },
  {
    "ogc_fid": 347,
    "cig": "3691 - 1103",
    "nombre": "VEREDA SAN LUIS - LA BELLEZA",
    "lng": -73.93742110394932,
    "lat": 5.827595385507628
  },
  {
    "ogc_fid": 348,
    "cig": "3701 - 1103",
    "nombre": "VEREDA BUENAVISTA - LA BELLEZA",
    "lng": -73.96742262292425,
    "lat": 5.839259044745058
  },
  {
    "ogc_fid": 349,
    "cig": "3711 - 1103",
    "nombre": "VEREDA CAMPO HERMOSO - LA BELLEZA",
    "lng": -73.98574168409674,
    "lat": 5.827111439758216
  },
  {
    "ogc_fid": 350,
    "cig": "3714 - 1103",
    "nombre": "VEREDA EL CARMEN - LA BELLEZA",
    "lng": -74.02433254293925,
    "lat": 5.821838319933928
  },
  {
    "ogc_fid": 351,
    "cig": "3715 - 1103",
    "nombre": "VEREDA OTRO MUNDO - LA BELLEZA",
    "lng": -74.0561850766694,
    "lat": 5.832215977536103
  },
  {
    "ogc_fid": 352,
    "cig": "1540 - 1103",
    "nombre": "LA BELLEZA URBANO - LA BELLEZA",
    "lng": -73.96564099471728,
    "lat": 5.860355896223392
  },
  {
    "ogc_fid": 353,
    "cig": "1826 - 1104",
    "nombre": "VEREDA SAN IGNACIO - LA PAZ",
    "lng": -73.67637778526168,
    "lat": 6.402022997323475
  },
  {
    "ogc_fid": 354,
    "cig": "1823 - 1104",
    "nombre": "VEREDA SAN PEDRO - LA PAZ",
    "lng": -73.69072676262142,
    "lat": 6.377461710261495
  },
  {
    "ogc_fid": 355,
    "cig": "1573 - 1104",
    "nombre": "VEREDA BOCAS - LA PAZ",
    "lng": -73.67496488083748,
    "lat": 6.358977232314502
  },
  {
    "ogc_fid": 356,
    "cig": "1574 - 1104",
    "nombre": "VEREDA TROCHAS - LA PAZ",
    "lng": -73.68478120994673,
    "lat": 6.3312512752220345
  },
  {
    "ogc_fid": 357,
    "cig": "1824 - 1104",
    "nombre": "VEREDA EL TAGUAL - LA PAZ",
    "lng": -73.71500480926952,
    "lat": 6.338241623461459
  },
  {
    "ogc_fid": 358,
    "cig": "1655 - 1104",
    "nombre": "VEREDA CULEBROSA - LA PAZ",
    "lng": -73.64441124000555,
    "lat": 6.345790279526108
  },
  {
    "ogc_fid": 359,
    "cig": "1666 - 1104",
    "nombre": "VEREDA SARDINAS BAJA - LA PAZ",
    "lng": -73.65787970341572,
    "lat": 6.392272718819785
  },
  {
    "ogc_fid": 360,
    "cig": "1811 - 1104",
    "nombre": "VEREDA SANTA ROSA - LA PAZ",
    "lng": -73.69685754035521,
    "lat": 6.1916757495884465
  },
  {
    "ogc_fid": 361,
    "cig": "1814 - 1104",
    "nombre": "VEREDA EL RECREO - LA PAZ",
    "lng": -73.69644384060874,
    "lat": 6.22628265165909
  },
  {
    "ogc_fid": 362,
    "cig": "1580 - 1104",
    "nombre": "VEREDA LOS MEDIOS - LA PAZ",
    "lng": -73.60504388806453,
    "lat": 6.235912866871475
  },
  {
    "ogc_fid": 363,
    "cig": "1581 - 1104",
    "nombre": "VEREDA LINTERNITA - LA PAZ",
    "lng": -73.63792926591297,
    "lat": 6.233400754596409
  },
  {
    "ogc_fid": 364,
    "cig": "1584 - 1104",
    "nombre": "VEREDA EL RECREO - LA PAZ",
    "lng": -73.63770837739752,
    "lat": 6.19775411650733
  },
  {
    "ogc_fid": 365,
    "cig": "1583 - 1104",
    "nombre": "VEREDA LOS CEDROS - LA PAZ",
    "lng": -73.57247391657677,
    "lat": 6.204131734087789
  },
  {
    "ogc_fid": 366,
    "cig": "1418 - 1104",
    "nombre": "VEREDA SAN JOAQUIN - LA PAZ",
    "lng": -73.55086670228933,
    "lat": 6.219815429707666
  },
  {
    "ogc_fid": 367,
    "cig": "1593 - 1104",
    "nombre": "VEREDA EL AMARILLO - LA PAZ",
    "lng": -73.5689608873017,
    "lat": 6.122707634594758
  },
  {
    "ogc_fid": 368,
    "cig": "1589 - 1104",
    "nombre": "VEREDA CARRERO - LA PAZ",
    "lng": -73.5670933950796,
    "lat": 6.142602723926007
  },
  {
    "ogc_fid": 369,
    "cig": "1588 - 1104",
    "nombre": "VEREDA SAN PABLO - LA PAZ",
    "lng": -73.56780699650587,
    "lat": 6.1726612797404385
  },
  {
    "ogc_fid": 370,
    "cig": "1809 - 1104",
    "nombre": "VEREDA ZARANDAS - LA PAZ",
    "lng": -73.67613695805375,
    "lat": 6.131428164556476
  },
  {
    "ogc_fid": 371,
    "cig": "1585 - 1104",
    "nombre": "VEREDA COLON - LA PAZ",
    "lng": -73.65656365110776,
    "lat": 6.168634335067692
  },
  {
    "ogc_fid": 372,
    "cig": "1810 - 1104",
    "nombre": "VEREDA CUBA - LA PAZ",
    "lng": -73.70070026870097,
    "lat": 6.1600458902903945
  },
  {
    "ogc_fid": 373,
    "cig": "1591 - 1104",
    "nombre": "VEREDA LA MATA - LA PAZ",
    "lng": -73.61140003677673,
    "lat": 6.148086638944417
  },
  {
    "ogc_fid": 374,
    "cig": "1592 - 1104",
    "nombre": "VEREDA CASAS BLANCAS - LA PAZ",
    "lng": -73.61294160694915,
    "lat": 6.130085614213662
  },
  {
    "ogc_fid": 375,
    "cig": "1590 - 1104",
    "nombre": "VEREDA EL TIGRE - LA PAZ",
    "lng": -73.59175270818136,
    "lat": 6.138388180040622
  },
  {
    "ogc_fid": 376,
    "cig": "1480 - 1104",
    "nombre": "VEREDA SAN MIGUEL - LA PAZ",
    "lng": -73.61797350509693,
    "lat": 6.100670367704017
  },
  {
    "ogc_fid": 377,
    "cig": "1479 - 1104",
    "nombre": "VEREDA LLANO DE SAN JUAN - LA PAZ",
    "lng": -73.63970296655312,
    "lat": 6.112483287746084
  },
  {
    "ogc_fid": 378,
    "cig": "1627 - 1104",
    "nombre": "VEREDA ZAQUE - LA PAZ",
    "lng": -73.55613011732277,
    "lat": 6.0844862026305
  },
  {
    "ogc_fid": 379,
    "cig": "1425 - 1104",
    "nombre": "VEREDA SAN ISIDRO - LA PAZ",
    "lng": -73.54302130451202,
    "lat": 6.136641765071585
  },
  {
    "ogc_fid": 380,
    "cig": "1420 - 1104",
    "nombre": "VEREDA SAN MARTIN - LA PAZ",
    "lng": -73.53897549461306,
    "lat": 6.186718950994417
  },
  {
    "ogc_fid": 381,
    "cig": "1579 - 1104",
    "nombre": "VEREDA EL PALMAR - LA PAZ",
    "lng": -73.60397462725287,
    "lat": 6.259628785283553
  },
  {
    "ogc_fid": 382,
    "cig": "1575 - 1104",
    "nombre": "VEREDA LA COMPANIA - LA PAZ",
    "lng": -73.70102823200129,
    "lat": 6.307088623309896
  },
  {
    "ogc_fid": 383,
    "cig": "1576 - 1104",
    "nombre": "VEREDA MIRABUENOS - LA PAZ",
    "lng": -73.68207401981758,
    "lat": 6.280949927255952
  },
  {
    "ogc_fid": 384,
    "cig": "1577 - 1104",
    "nombre": "VEREDA LA LINTERNA - LA PAZ",
    "lng": -73.66202562190045,
    "lat": 6.2585733263709225
  },
  {
    "ogc_fid": 385,
    "cig": "1669 - 1104",
    "nombre": "VEREDA AGUA BLANCA - LA PAZ",
    "lng": -73.66447582056266,
    "lat": 6.302019387226789
  },
  {
    "ogc_fid": 386,
    "cig": "1582 - 1104",
    "nombre": "VEREDA MACANAL - LA PAZ",
    "lng": -73.66227833187433,
    "lat": 6.2284839852390945
  },
  {
    "ogc_fid": 387,
    "cig": "1833 - 1104",
    "nombre": "VEREDA LA SOLEDAD - LA PAZ",
    "lng": -73.73437045588739,
    "lat": 6.303079482042979
  },
  {
    "ogc_fid": 388,
    "cig": "1820 - 1104",
    "nombre": "VEREDA ALTAMIRA - LA PAZ",
    "lng": -73.71932525027883,
    "lat": 6.2845401388455695
  },
  {
    "ogc_fid": 389,
    "cig": "1819 - 1104",
    "nombre": "VEREDA LIMONCITO - LA PAZ",
    "lng": -73.70531645519304,
    "lat": 6.261486707850278
  },
  {
    "ogc_fid": 390,
    "cig": "1578 - 1104",
    "nombre": "VEREDA RINCON SANTO - LA PAZ",
    "lng": -73.63956437246276,
    "lat": 6.265578834438966
  },
  {
    "ogc_fid": 391,
    "cig": "1670 - 1104",
    "nombre": "VEREDA CENTRO CAMPO - LA PAZ",
    "lng": -73.65090905502834,
    "lat": 6.2861302176203075
  },
  {
    "ogc_fid": 392,
    "cig": "1587 - 1104",
    "nombre": "VEREDA CENTRO - LA PAZ",
    "lng": -73.59564169573626,
    "lat": 6.173389999024104
  },
  {
    "ogc_fid": 393,
    "cig": "1586 - 1104",
    "nombre": "LA PAZ URBANO - LA PAZ",
    "lng": -73.58961989094266,
    "lat": 6.1785886072273195
  },
  {
    "ogc_fid": 394,
    "cig": "1594 - 1104",
    "nombre": "VEREDA EL HATO - LA PAZ",
    "lng": -73.58391569055725,
    "lat": 6.106660026367331
  },
  {
    "ogc_fid": 395,
    "cig": "1481 - 1104",
    "nombre": "VEREDA SALITRE SECO - LA PAZ",
    "lng": -73.59814280897379,
    "lat": 6.085335764553167
  },
  {
    "ogc_fid": 396,
    "cig": "1667 - 1104",
    "nombre": "VEREDA CANDELARIA - LA PAZ",
    "lng": -73.65690961696791,
    "lat": 6.317775021957533
  },
  {
    "ogc_fid": 397,
    "cig": "2730 - 1104",
    "nombre": "VEREDA EL CENTRO SANTA RITA - LA PAZ",
    "lng": -73.60231502807319,
    "lat": 6.287228435718427
  },
  {
    "ogc_fid": 398,
    "cig": "2731 - 1104",
    "nombre": "VEREDA GUADUALES - LA PAZ",
    "lng": -73.58272106036144,
    "lat": 6.272508549053208
  },
  {
    "ogc_fid": 399,
    "cig": "2729 - 1104",
    "nombre": "VEREDA SANTA RITA ANTIGUA - LA PAZ",
    "lng": -73.62423324797959,
    "lat": 6.298583766917383
  },
  {
    "ogc_fid": 400,
    "cig": "1583 - 1102",
    "nombre": "VEREDA LOS CEDROS - AGUADA",
    "lng": -73.57247391657677,
    "lat": 6.204131734087789
  },
  {
    "ogc_fid": 401,
    "cig": "1419 - 1102",
    "nombre": "VEREDA SAN ANTONIO - AGUADA",
    "lng": -73.50753674840122,
    "lat": 6.191711115842203
  },
  {
    "ogc_fid": 402,
    "cig": "1418 - 1102",
    "nombre": "VEREDA SAN JOAQUIN - AGUADA",
    "lng": -73.55086670228933,
    "lat": 6.219815429707666
  },
  {
    "ogc_fid": 403,
    "cig": "1417 - 1102",
    "nombre": "VEREDA SAN DIEGO YARIGUIES - AGUADA",
    "lng": -73.53770208075592,
    "lat": 6.231323688830135
  },
  {
    "ogc_fid": 404,
    "cig": "1589 - 1102",
    "nombre": "VEREDA CARRERO - AGUADA",
    "lng": -73.5670933950796,
    "lat": 6.142602723926007
  },
  {
    "ogc_fid": 405,
    "cig": "1588 - 1102",
    "nombre": "VEREDA SAN PABLO - AGUADA",
    "lng": -73.56780699650587,
    "lat": 6.1726612797404385
  },
  {
    "ogc_fid": 406,
    "cig": "1633 - 1102",
    "nombre": "VEREDA JUNTAS - AGUADA",
    "lng": -73.48821857834531,
    "lat": 6.148418638902888
  },
  {
    "ogc_fid": 407,
    "cig": "1422 - 1102",
    "nombre": "VEREDA SAN ALBERTO - AGUADA",
    "lng": -73.50574122979636,
    "lat": 6.163856041982224
  },
  {
    "ogc_fid": 408,
    "cig": "1632 - 1102",
    "nombre": "VEREDA CHINCHAMATO - AGUADA",
    "lng": -73.51186690222261,
    "lat": 6.137571958331994
  },
  {
    "ogc_fid": 409,
    "cig": "1425 - 1102",
    "nombre": "VEREDA SAN ISIDRO - AGUADA",
    "lng": -73.54302130451202,
    "lat": 6.136641765071585
  },
  {
    "ogc_fid": 410,
    "cig": "1424 - 1102",
    "nombre": "VEREDA CENTRO - AGUADA",
    "lng": -73.52794255253497,
    "lat": 6.158270760165129
  },
  {
    "ogc_fid": 411,
    "cig": "1421 - 1102",
    "nombre": "VEREDA SANTA ROSA - AGUADA",
    "lng": -73.54624512221524,
    "lat": 6.168922047322412
  },
  {
    "ogc_fid": 412,
    "cig": "1420 - 1102",
    "nombre": "VEREDA SAN MARTIN - AGUADA",
    "lng": -73.53897549461306,
    "lat": 6.186718950994417
  },
  {
    "ogc_fid": 413,
    "cig": "1579 - 1102",
    "nombre": "VEREDA EL PALMAR - AGUADA",
    "lng": -73.60397462725287,
    "lat": 6.259628785283553
  },
  {
    "ogc_fid": 414,
    "cig": "1423 - 1102",
    "nombre": "AGUADA URBANO - AGUADA",
    "lng": -73.52282471405444,
    "lat": 6.162010009598899
  },
  {
    "ogc_fid": 415,
    "cig": "2736 - 1102",
    "nombre": "VEREDA LOMA EN MEDIO - AGUADA",
    "lng": -73.48624968393534,
    "lat": 6.207384299666307
  },
  {
    "ogc_fid": 416,
    "cig": "2731 - 1102",
    "nombre": "VEREDA GUADUALES - AGUADA",
    "lng": -73.58272106036144,
    "lat": 6.272508549053208
  },
  {
    "ogc_fid": 417,
    "cig": "2737 - 1102",
    "nombre": "VEREDA EL MORRO - AGUADA",
    "lng": -73.51343257761751,
    "lat": 6.216926163656053
  },
  {
    "ogc_fid": 418,
    "cig": "2733 - 1102",
    "nombre": "VEREDA YARIGUIES - AGUADA",
    "lng": -73.53659146220856,
    "lat": 6.247995409707816
  },
  {
    "ogc_fid": 419,
    "cig": "2678 - 1102",
    "nombre": "VEREDA SAN ANTONIO - AGUADA",
    "lng": -73.46571090604996,
    "lat": 6.182902375870659
  },
  {
    "ogc_fid": 420,
    "cig": "3826 - 1105",
    "nombre": "VEREDA SABOYA - PUENTE NACIONAL",
    "lng": -73.7500210019333,
    "lat": 5.698328997718192
  },
  {
    "ogc_fid": 421,
    "cig": "4049 - 1105",
    "nombre": "CENTRO POBLADO LA CAPILLA - PUENTE NACIONAL",
    "lng": -73.65803250664887,
    "lat": 5.864389954515578
  },
  {
    "ogc_fid": 422,
    "cig": "1754 - 1105",
    "nombre": "VEREDA EL TABLON - PUENTE NACIONAL",
    "lng": -73.76852793523578,
    "lat": 5.781536956559296
  },
  {
    "ogc_fid": 423,
    "cig": "1521 - 1105",
    "nombre": "VEREDA ALTO GRANDE - PUENTE NACIONAL",
    "lng": -73.75863739192113,
    "lat": 5.885408075230449
  },
  {
    "ogc_fid": 424,
    "cig": "1616 - 1105",
    "nombre": "VEREDA JARANTIVA - PUENTE NACIONAL",
    "lng": -73.66184498901472,
    "lat": 5.814815837957692
  },
  {
    "ogc_fid": 425,
    "cig": "1618 - 1105",
    "nombre": "VEREDA MONTES - PUENTE NACIONAL",
    "lng": -73.68276057064035,
    "lat": 5.783131539046456
  },
  {
    "ogc_fid": 426,
    "cig": "1620 - 1105",
    "nombre": "VEREDA ALTO SAN DIMAS - PUENTE NACIONAL",
    "lng": -73.73648359330522,
    "lat": 5.782472214957813
  },
  {
    "ogc_fid": 427,
    "cig": "1615 - 1105",
    "nombre": "VEREDA PENITAS - PUENTE NACIONAL",
    "lng": -73.67887911856072,
    "lat": 5.845819448928539
  },
  {
    "ogc_fid": 428,
    "cig": "1607 - 1105",
    "nombre": "PUENTE NACIONAL URBANO - PUENTE NACIONAL",
    "lng": -73.67798606926823,
    "lat": 5.877919472837856
  },
  {
    "ogc_fid": 429,
    "cig": "1598 - 1105",
    "nombre": "VEREDA SEMISA - PUENTE NACIONAL",
    "lng": -73.67045498230017,
    "lat": 5.88863662428487
  },
  {
    "ogc_fid": 430,
    "cig": "1505 - 1105",
    "nombre": "VEREDA TRES ESQUINAS - PUENTE NACIONAL",
    "lng": -73.67567224177783,
    "lat": 5.9272679636796415
  },
  {
    "ogc_fid": 431,
    "cig": "1597 - 1105",
    "nombre": "VEREDA ALTO SEMISA - PUENTE NACIONAL",
    "lng": -73.67643767308827,
    "lat": 5.909312681607176
  },
  {
    "ogc_fid": 432,
    "cig": "1606 - 1105",
    "nombre": "VEREDA IROBA - PUENTE NACIONAL",
    "lng": -73.68796783723471,
    "lat": 5.898696753399143
  },
  {
    "ogc_fid": 433,
    "cig": "1601 - 1105",
    "nombre": "VEREDA BAJO CANTANO - PUENTE NACIONAL",
    "lng": -73.65073857669728,
    "lat": 5.870965923214355
  },
  {
    "ogc_fid": 434,
    "cig": "1621 - 1105",
    "nombre": "VEREDA RIO SUAREZ - PUENTE NACIONAL",
    "lng": -73.69557718697979,
    "lat": 5.840391945154822
  },
  {
    "ogc_fid": 435,
    "cig": "1608 - 1105",
    "nombre": "VEREDA RINCON - PUENTE NACIONAL",
    "lng": -73.6891818627755,
    "lat": 5.878694273359739
  },
  {
    "ogc_fid": 436,
    "cig": "1619 - 1105",
    "nombre": "VEREDA BAJO SAN DIMAS - PUENTE NACIONAL",
    "lng": -73.7154372431638,
    "lat": 5.810526149945261
  },
  {
    "ogc_fid": 437,
    "cig": "1614 - 1105",
    "nombre": "VEREDA CULEBRILLA - PUENTE NACIONAL",
    "lng": -73.72470088658082,
    "lat": 5.847755301801495
  },
  {
    "ogc_fid": 438,
    "cig": "1622 - 1105",
    "nombre": "VEREDA PETAQUEROS - PUENTE NACIONAL",
    "lng": -73.73599698397545,
    "lat": 5.8243186127637765
  },
  {
    "ogc_fid": 439,
    "cig": "1623 - 1105",
    "nombre": "VEREDA MEDIOS - PUENTE NACIONAL",
    "lng": -73.73788992648892,
    "lat": 5.807418419918731
  },
  {
    "ogc_fid": 440,
    "cig": "1613 - 1105",
    "nombre": "VEREDA POPOITA - PUENTE NACIONAL",
    "lng": -73.70699668838493,
    "lat": 5.866549467997125
  },
  {
    "ogc_fid": 441,
    "cig": "1612 - 1105",
    "nombre": "VEREDA RESGUARDO - PUENTE NACIONAL",
    "lng": -73.72736843411728,
    "lat": 5.86805250244213
  },
  {
    "ogc_fid": 442,
    "cig": "1500 - 1105",
    "nombre": "VEREDA MERCADILLO - PUENTE NACIONAL",
    "lng": -73.73770205709639,
    "lat": 5.915795518893866
  },
  {
    "ogc_fid": 443,
    "cig": "3219 - 1105",
    "nombre": "VEREDA EL INJERTO - PUENTE NACIONAL",
    "lng": -73.70397648320017,
    "lat": 5.90680279361675
  },
  {
    "ogc_fid": 444,
    "cig": "1501 - 1105",
    "nombre": "VEREDA SAN ROQUE DE PICACHO - PUENTE NACIONAL",
    "lng": -73.71209918943138,
    "lat": 5.918266537073968
  },
  {
    "ogc_fid": 445,
    "cig": "1504 - 1105",
    "nombre": "VEREDA ESTANCIA DE GONZALEZ - PUENTE NACIONAL",
    "lng": -73.69150303726248,
    "lat": 5.9236856975315035
  },
  {
    "ogc_fid": 446,
    "cig": "1611 - 1105",
    "nombre": "VEREDA LA CUCHILLA - PUENTE NACIONAL",
    "lng": -73.70497928908222,
    "lat": 5.881812801407397
  },
  {
    "ogc_fid": 447,
    "cig": "1609 - 1105",
    "nombre": "VEREDA POPOA NORTE - PUENTE NACIONAL",
    "lng": -73.71875464335675,
    "lat": 5.896913392193961
  },
  {
    "ogc_fid": 448,
    "cig": "1746 - 1105",
    "nombre": "VEREDA AGUACATE - PUENTE NACIONAL",
    "lng": -73.74628529742074,
    "lat": 5.854527457865489
  },
  {
    "ogc_fid": 449,
    "cig": "1748 - 1105",
    "nombre": "VEREDA UTAPA - PUENTE NACIONAL",
    "lng": -73.75523789131579,
    "lat": 5.8326026656080465
  },
  {
    "ogc_fid": 450,
    "cig": "1610 - 1105",
    "nombre": "VEREDA POPOA SUR - PUENTE NACIONAL",
    "lng": -73.73451023376741,
    "lat": 5.885446007488526
  },
  {
    "ogc_fid": 451,
    "cig": "1603 - 1105",
    "nombre": "VEREDA BAJO CAPILLA - PUENTE NACIONAL",
    "lng": -73.65039627062761,
    "lat": 5.848636735171192
  },
  {
    "ogc_fid": 452,
    "cig": "1604 - 1105",
    "nombre": "VEREDA ALTO CAPILLA - PUENTE NACIONAL",
    "lng": -73.64116704897238,
    "lat": 5.8119728699947935
  },
  {
    "ogc_fid": 453,
    "cig": "1605 - 1105",
    "nombre": "VEREDA URUMAL - PUENTE NACIONAL",
    "lng": -73.63177285336243,
    "lat": 5.819140269267559
  },
  {
    "ogc_fid": 454,
    "cig": "1602 - 1105",
    "nombre": "VEREDA ALTO CANTANO - PUENTE NACIONAL",
    "lng": -73.62207682704543,
    "lat": 5.85009010378415
  },
  {
    "ogc_fid": 455,
    "cig": "1476 - 1105",
    "nombre": "VEREDA CRISTALES - PUENTE NACIONAL",
    "lng": -73.63919916476173,
    "lat": 5.923431744320966
  },
  {
    "ogc_fid": 456,
    "cig": "1600 - 1105",
    "nombre": "VEREDA ALTO GUAMITO - PUENTE NACIONAL",
    "lng": -73.6092493899633,
    "lat": 5.873097468028362
  },
  {
    "ogc_fid": 457,
    "cig": "1599 - 1105",
    "nombre": "VEREDA BAJO GUAMITO - PUENTE NACIONAL",
    "lng": -73.62905807226898,
    "lat": 5.886484766865862
  },
  {
    "ogc_fid": 458,
    "cig": "1475 - 1105",
    "nombre": "VEREDA BUENAVISTA - PUENTE NACIONAL",
    "lng": -73.65113026779382,
    "lat": 5.939082813960367
  },
  {
    "ogc_fid": 459,
    "cig": "1596 - 1105",
    "nombre": "VEREDA BAJO SEMISA - PUENTE NACIONAL",
    "lng": -73.65392336585808,
    "lat": 5.907018709324995
  },
  {
    "ogc_fid": 460,
    "cig": "1790 - 1105",
    "nombre": "VEREDA ACO DE PENA BLANCA - PUENTE NACIONAL",
    "lng": -73.658660472452,
    "lat": 5.960251398256809
  },
  {
    "ogc_fid": 461,
    "cig": "1753 - 1105",
    "nombre": "VEREDA EL HATILLO - PUENTE NACIONAL",
    "lng": -73.76648704444231,
    "lat": 5.804306223130526
  },
  {
    "ogc_fid": 462,
    "cig": "1527 - 1105",
    "nombre": "VEREDA BRAVO PAEZ - PUENTE NACIONAL",
    "lng": -73.76995827115749,
    "lat": 5.868758827144518
  },
  {
    "ogc_fid": 463,
    "cig": "1617 - 1105",
    "nombre": "VEREDA EL PARAMO - PUENTE NACIONAL",
    "lng": -73.6444952686583,
    "lat": 5.761728112037366
  },
  {
    "ogc_fid": 464,
    "cig": "3829 - 1105",
    "nombre": "VEREDA SANTA SOFIA - PUENTE NACIONAL",
    "lng": -73.6044458751805,
    "lat": 5.719660815492111
  },
  {
    "ogc_fid": 465,
    "cig": "3844 - 1105",
    "nombre": "VEREDA MONIQUIRA - PUENTE NACIONAL",
    "lng": -73.5567403161988,
    "lat": 5.8574446624904954
  },
  {
    "ogc_fid": 466,
    "cig": "1521 - 1095",
    "nombre": "VEREDA ALTO GRANDE - GUAVATA",
    "lng": -73.75863739192113,
    "lat": 5.885408075230449
  },
  {
    "ogc_fid": 467,
    "cig": "1522 - 1095",
    "nombre": "VEREDA SANTA ROSA DE LOS AIRES - GUAVATA",
    "lng": -73.77040689230326,
    "lat": 5.897934056829114
  },
  {
    "ogc_fid": 468,
    "cig": "1731 - 1095",
    "nombre": "VEREDA HELECHALES - GUAVATA",
    "lng": -73.76801788168167,
    "lat": 5.914953487120199
  },
  {
    "ogc_fid": 469,
    "cig": "1493 - 1095",
    "nombre": "VEREDA EL PEDREGAL - GUAVATA",
    "lng": -73.74811550253365,
    "lat": 5.988350335691589
  },
  {
    "ogc_fid": 470,
    "cig": "1797 - 1095",
    "nombre": "VEREDA HATO SANTA BARBARA - GUAVATA",
    "lng": -73.71281372355075,
    "lat": 5.98858600103045
  },
  {
    "ogc_fid": 471,
    "cig": "1798 - 1095",
    "nombre": "VEREDA LAGUNETAS BAJO - GUAVATA",
    "lng": -73.69650326025369,
    "lat": 5.983127262229164
  },
  {
    "ogc_fid": 472,
    "cig": "1506 - 1095",
    "nombre": "VEREDA PUENTES Y NARANJOS - GUAVATA",
    "lng": -73.67906617728723,
    "lat": 5.944685325602271
  },
  {
    "ogc_fid": 473,
    "cig": "1505 - 1095",
    "nombre": "VEREDA TRES ESQUINAS - GUAVATA",
    "lng": -73.67567224177783,
    "lat": 5.9272679636796415
  },
  {
    "ogc_fid": 474,
    "cig": "1597 - 1095",
    "nombre": "VEREDA ALTO SEMISA - GUAVATA",
    "lng": -73.67643767308827,
    "lat": 5.909312681607176
  },
  {
    "ogc_fid": 475,
    "cig": "1606 - 1095",
    "nombre": "VEREDA IROBA - GUAVATA",
    "lng": -73.68796783723471,
    "lat": 5.898696753399143
  },
  {
    "ogc_fid": 476,
    "cig": "1791 - 1095",
    "nombre": "VEREDA DOCTRINA NARANJOS - GUAVATA",
    "lng": -73.67900278808105,
    "lat": 5.9669114406245045
  },
  {
    "ogc_fid": 477,
    "cig": "1792 - 1095",
    "nombre": "VEREDA DOCTRINA PORTACHUELO - GUAVATA",
    "lng": -73.66756552069681,
    "lat": 5.956650752708036
  },
  {
    "ogc_fid": 478,
    "cig": "3220 - 1095",
    "nombre": "VEREDA PUERTO LOPEZ - GUAVATA",
    "lng": -73.74425699942886,
    "lat": 5.94318235797491
  },
  {
    "ogc_fid": 479,
    "cig": "1498 - 1095",
    "nombre": "VEREDA BOTUVA I - GUAVATA",
    "lng": -73.72360272086846,
    "lat": 5.9497484043035165
  },
  {
    "ogc_fid": 480,
    "cig": "3218 - 1095",
    "nombre": "VEREDA ESCOBAL - GUAVATA",
    "lng": -73.71036324321595,
    "lat": 5.943218681300729
  },
  {
    "ogc_fid": 481,
    "cig": "1502 - 1095",
    "nombre": "VEREDA SAN VICENTE - GUAVATA",
    "lng": -73.71832130291864,
    "lat": 5.9365684894943005
  },
  {
    "ogc_fid": 482,
    "cig": "1500 - 1095",
    "nombre": "VEREDA MERCADILLO - GUAVATA",
    "lng": -73.73770205709639,
    "lat": 5.915795518893866
  },
  {
    "ogc_fid": 483,
    "cig": "3219 - 1095",
    "nombre": "VEREDA EL INJERTO - GUAVATA",
    "lng": -73.70397648320017,
    "lat": 5.90680279361675
  },
  {
    "ogc_fid": 484,
    "cig": "1501 - 1095",
    "nombre": "VEREDA SAN ROQUE DE PICACHO - GUAVATA",
    "lng": -73.71209918943138,
    "lat": 5.918266537073968
  },
  {
    "ogc_fid": 485,
    "cig": "1503 - 1095",
    "nombre": "VEREDA SAN JOSE DE IROBA - GUAVATA",
    "lng": -73.70423315801762,
    "lat": 5.9282856356739355
  },
  {
    "ogc_fid": 486,
    "cig": "1497 - 1095",
    "nombre": "VEREDA BOTUVA II - GUAVATA",
    "lng": -73.73678305239628,
    "lat": 5.937746431067622
  },
  {
    "ogc_fid": 487,
    "cig": "1504 - 1095",
    "nombre": "VEREDA ESTANCIA DE GONZALEZ - GUAVATA",
    "lng": -73.69150303726248,
    "lat": 5.9236856975315035
  },
  {
    "ogc_fid": 488,
    "cig": "1494 - 1095",
    "nombre": "VEREDA HELECHAL Y MESA - GUAVATA",
    "lng": -73.7229312240639,
    "lat": 5.975645908437349
  },
  {
    "ogc_fid": 489,
    "cig": "1495 - 1095",
    "nombre": "VEREDA EL CASIQUITO - GUAVATA",
    "lng": -73.74424532481139,
    "lat": 5.969524984407316
  },
  {
    "ogc_fid": 490,
    "cig": "3221 - 1095",
    "nombre": "VEREDA TRES ESQUINAS LOS PATIOS - GUAVATA",
    "lng": -73.73203452141813,
    "lat": 5.9591724431077155
  },
  {
    "ogc_fid": 491,
    "cig": "1496 - 1095",
    "nombre": "VEREDA MATARREDONDA - GUAVATA",
    "lng": -73.74981201304473,
    "lat": 5.949315523488209
  },
  {
    "ogc_fid": 492,
    "cig": "1609 - 1095",
    "nombre": "VEREDA POPOA NORTE - GUAVATA",
    "lng": -73.71875464335675,
    "lat": 5.896913392193961
  },
  {
    "ogc_fid": 493,
    "cig": "1499 - 1095",
    "nombre": "VEREDA LA UNION - GUAVATA",
    "lng": -73.7574843440994,
    "lat": 5.928619197387804
  },
  {
    "ogc_fid": 494,
    "cig": "1475 - 1095",
    "nombre": "VEREDA BUENAVISTA - GUAVATA",
    "lng": -73.65113026779382,
    "lat": 5.939082813960367
  },
  {
    "ogc_fid": 495,
    "cig": "1790 - 1095",
    "nombre": "VEREDA ACO DE PENA BLANCA - GUAVATA",
    "lng": -73.658660472452,
    "lat": 5.960251398256809
  },
  {
    "ogc_fid": 496,
    "cig": "1509 - 1095",
    "nombre": "VEREDA POPOA - GUAVATA",
    "lng": -73.70348850774357,
    "lat": 5.96348992200103
  },
  {
    "ogc_fid": 497,
    "cig": "1507 - 1095",
    "nombre": "VEREDA PARACHOQUE - GUAVATA",
    "lng": -73.69681966385828,
    "lat": 5.943730440512267
  },
  {
    "ogc_fid": 498,
    "cig": "1508 - 1095",
    "nombre": "VEREDA SAN RAFAEL - GUAVATA",
    "lng": -73.69051401849909,
    "lat": 5.959505732337108
  },
  {
    "ogc_fid": 499,
    "cig": "1724 - 1095",
    "nombre": "VEREDA CALLEJON I - GUAVATA",
    "lng": -73.77648041308821,
    "lat": 5.929524166208442
  },
  {
    "ogc_fid": 500,
    "cig": "3377 - 1095",
    "nombre": "VEREDA GAVILAN - GUAVATA",
    "lng": -73.77182259715529,
    "lat": 5.944751130610131
  },
  {
    "ogc_fid": 501,
    "cig": "3378 - 1095",
    "nombre": "VEREDA EL HATICO - GUAVATA",
    "lng": -73.76130641792739,
    "lat": 5.956061021226549
  },
  {
    "ogc_fid": 502,
    "cig": "1510 - 1095",
    "nombre": "GUAVATA URBANO - GUAVATA",
    "lng": -73.70108685438456,
    "lat": 5.95445252108053
  },
  {
    "ogc_fid": 503,
    "cig": "3376 - 1095",
    "nombre": "VEREDA SAN ANTONIO - GUAVATA",
    "lng": -73.76822307918846,
    "lat": 5.968334810431295
  },
  {
    "ogc_fid": 504,
    "cig": "3379 - 1095",
    "nombre": "VEREDA PAYO - GUAVATA",
    "lng": -73.76479250000656,
    "lat": 5.982200266186765
  },
  {
    "ogc_fid": 505,
    "cig": "3380 - 1095",
    "nombre": "VEREDA BAJO PALMAS - GUAVATA",
    "lng": -73.76348374680654,
    "lat": 5.992515195246077
  },
  {
    "ogc_fid": 506,
    "cig": "3381 - 1095",
    "nombre": "VEREDA BAJO MINA - GUAVATA",
    "lng": -73.76108364689141,
    "lat": 6.006062960492106
  },
  {
    "ogc_fid": 507,
    "cig": "3386 - 1095",
    "nombre": "VEREDA FUNCIA - GUAVATA",
    "lng": -73.74369390577385,
    "lat": 6.012497613130399
  },
  {
    "ogc_fid": 508,
    "cig": "1799 - 1095",
    "nombre": "VEREDA EL UVITO - GUAVATA",
    "lng": -73.72778833451478,
    "lat": 6.0005429986889505
  },
  {
    "ogc_fid": 509,
    "cig": "1451 - 1035",
    "nombre": "SAMAN - BARBOSA",
    "lng": -73.61383519729858,
    "lat": 5.930962881988305
  },
  {
    "ogc_fid": 510,
    "cig": "1452 - 1035",
    "nombre": "LOS PINOS - BARBOSA",
    "lng": -73.61398334013366,
    "lat": 5.929748688976502
  },
  {
    "ogc_fid": 511,
    "cig": "1430 - 1035",
    "nombre": "VILLA PAZ LA CU?A - BARBOSA",
    "lng": -73.61972645375513,
    "lat": 5.9273366028121455
  },
  {
    "ogc_fid": 512,
    "cig": "1453 - 1035",
    "nombre": "AZUFRADO BAJO - BARBOSA",
    "lng": -73.62068843498848,
    "lat": 5.930025598925959
  },
  {
    "ogc_fid": 513,
    "cig": "1435 - 1035",
    "nombre": "EL CARMEN - BARBOSA",
    "lng": -73.61886396057713,
    "lat": 5.9319653326182955
  },
  {
    "ogc_fid": 514,
    "cig": "1468 - 1035",
    "nombre": "VILLA OLIMPICA - BARBOSA",
    "lng": -73.60664745122793,
    "lat": 5.936443470066813
  },
  {
    "ogc_fid": 515,
    "cig": "1467 - 1035",
    "nombre": "LA PRADERA - BARBOSA",
    "lng": -73.61089462171984,
    "lat": 5.938287768643047
  },
  {
    "ogc_fid": 516,
    "cig": "1454 - 1035",
    "nombre": "LA FUENTE - BARBOSA",
    "lng": -73.61133868020842,
    "lat": 5.940389303759042
  },
  {
    "ogc_fid": 517,
    "cig": "1466 - 1035",
    "nombre": "NUEVO AMANECER - BARBOSA",
    "lng": -73.6099189899004,
    "lat": 5.930677117326146
  },
  {
    "ogc_fid": 518,
    "cig": "1446 - 1035",
    "nombre": "LOS ALMENDROS - BARBOSA",
    "lng": -73.60854856686078,
    "lat": 5.937365453496085
  },
  {
    "ogc_fid": 519,
    "cig": "1465 - 1035",
    "nombre": "CARLOTA - BARBOSA",
    "lng": -73.6093691883846,
    "lat": 5.934786112587355
  },
  {
    "ogc_fid": 520,
    "cig": "1464 - 1035",
    "nombre": "LOS ALAMOS - BARBOSA",
    "lng": -73.6110673771987,
    "lat": 5.930813528789816
  },
  {
    "ogc_fid": 521,
    "cig": "1463 - 1035",
    "nombre": "URBANIZACION VILLA DEL RIO - BARBOSA",
    "lng": -73.61204432726618,
    "lat": 5.929904936021423
  },
  {
    "ogc_fid": 522,
    "cig": "1444 - 1035",
    "nombre": "SANTA FE - BARBOSA",
    "lng": -73.61259443284281,
    "lat": 5.93589934319284
  },
  {
    "ogc_fid": 523,
    "cig": "1436 - 1035",
    "nombre": "SAN JORGE - BARBOSA",
    "lng": -73.61605673001229,
    "lat": 5.93454743150873
  },
  {
    "ogc_fid": 524,
    "cig": "1433 - 1035",
    "nombre": "AVENIDA DE LAS AMERICAS - BARBOSA",
    "lng": -73.61720345970257,
    "lat": 5.929217423829949
  },
  {
    "ogc_fid": 525,
    "cig": "1462 - 1035",
    "nombre": "URBANIZACION EL LAGO - BARBOSA",
    "lng": -73.60586609304039,
    "lat": 5.934501914285235
  },
  {
    "ogc_fid": 526,
    "cig": "1461 - 1035",
    "nombre": "DIAMANTE - BARBOSA",
    "lng": -73.62144073980443,
    "lat": 5.926948504095212
  },
  {
    "ogc_fid": 527,
    "cig": "1460 - 1035",
    "nombre": "URBANIZACION SAN CARLOS - BARBOSA",
    "lng": -73.62144245585489,
    "lat": 5.925465009076845
  },
  {
    "ogc_fid": 528,
    "cig": "1459 - 1035",
    "nombre": "URBANIZACION REMANSOS DEL RIO - BARBOSA",
    "lng": -73.6195188425829,
    "lat": 5.925477779305418
  },
  {
    "ogc_fid": 529,
    "cig": "1455 - 1035",
    "nombre": "ASOVIVIR CA?AVERAL - BARBOSA",
    "lng": -73.61227922139065,
    "lat": 5.945730060933171
  },
  {
    "ogc_fid": 530,
    "cig": "1450 - 1035",
    "nombre": "EL PRADO - BARBOSA",
    "lng": -73.61252285300894,
    "lat": 5.9319976689676315
  },
  {
    "ogc_fid": 531,
    "cig": "1449 - 1035",
    "nombre": "SAN LUIS - BARBOSA",
    "lng": -73.61144962456655,
    "lat": 5.933048753844836
  },
  {
    "ogc_fid": 532,
    "cig": "1448 - 1035",
    "nombre": "SAN GIL - BARBOSA",
    "lng": -73.60805016375693,
    "lat": 5.935591744462817
  },
  {
    "ogc_fid": 533,
    "cig": "1447 - 1035",
    "nombre": "JUAN VARGAS - BARBOSA",
    "lng": -73.61056764653677,
    "lat": 5.935015084387822
  },
  {
    "ogc_fid": 534,
    "cig": "1445 - 1035",
    "nombre": "SANTANDER - BARBOSA",
    "lng": -73.61040676228333,
    "lat": 5.936559365770444
  },
  {
    "ogc_fid": 535,
    "cig": "1443 - 1035",
    "nombre": "EL TRAPICHE - BARBOSA",
    "lng": -73.61403796098335,
    "lat": 5.933748475649148
  },
  {
    "ogc_fid": 536,
    "cig": "1442 - 1035",
    "nombre": "SAN JOSE - BARBOSA",
    "lng": -73.61548991438018,
    "lat": 5.932001928958921
  },
  {
    "ogc_fid": 537,
    "cig": "1440 - 1035",
    "nombre": "CA?AVERAL COOMULTRASAN - BARBOSA",
    "lng": -73.61428024428258,
    "lat": 5.93875151148935
  },
  {
    "ogc_fid": 538,
    "cig": "1441 - 1035",
    "nombre": "PINAR - BARBOSA",
    "lng": -73.6156690114803,
    "lat": 5.93682075107701
  },
  {
    "ogc_fid": 539,
    "cig": "1439 - 1035",
    "nombre": "MARSELLA - BARBOSA",
    "lng": -73.61452679398083,
    "lat": 5.937034971141415
  },
  {
    "ogc_fid": 540,
    "cig": "1438 - 1035",
    "nombre": "CAOBOS - BARBOSA",
    "lng": -73.611201952749,
    "lat": 5.933677461167383
  },
  {
    "ogc_fid": 541,
    "cig": "1437 - 1035",
    "nombre": "LA ESPERANZA - BARBOSA",
    "lng": -73.61518374734084,
    "lat": 5.9357674802800116
  },
  {
    "ogc_fid": 542,
    "cig": "1434 - 1035",
    "nombre": "CENTRO - BARBOSA",
    "lng": -73.617517249152,
    "lat": 5.9312793554517524
  },
  {
    "ogc_fid": 543,
    "cig": "1432 - 1035",
    "nombre": "JOSE ANTONIO GALAN - BARBOSA",
    "lng": -73.61557432053678,
    "lat": 5.928446512349089
  },
  {
    "ogc_fid": 544,
    "cig": "1431 - 1035",
    "nombre": "URIBE-URIBE - BARBOSA",
    "lng": -73.61611896592136,
    "lat": 5.926989053077581
  },
  {
    "ogc_fid": 545,
    "cig": "1476 - 1035",
    "nombre": "VEREDA CRISTALES - BARBOSA",
    "lng": -73.63919916476173,
    "lat": 5.923431744320966
  },
  {
    "ogc_fid": 546,
    "cig": "1474 - 1035",
    "nombre": "VEREDA FRANCISCO DE PAULA SANTANDER - BARBOSA",
    "lng": -73.63369100225836,
    "lat": 5.938718729881054
  },
  {
    "ogc_fid": 547,
    "cig": "1471 - 1035",
    "nombre": "VEREDA POZO NEGRO - BARBOSA",
    "lng": -73.63800117315687,
    "lat": 5.962997889796084
  },
  {
    "ogc_fid": 548,
    "cig": "1472 - 1035",
    "nombre": "VEREDA EL AMARILLO - BARBOSA",
    "lng": -73.62387483687064,
    "lat": 5.950312587075509
  },
  {
    "ogc_fid": 549,
    "cig": "1475 - 1035",
    "nombre": "VEREDA BUENAVISTA - BARBOSA",
    "lng": -73.65113026779382,
    "lat": 5.939082813960367
  },
  {
    "ogc_fid": 550,
    "cig": "1429 - 1035",
    "nombre": "CIUDAD METROPOLITANA - BARBOSA",
    "lng": -73.62589168401237,
    "lat": 5.929802074983303
  },
  {
    "ogc_fid": 551,
    "cig": "1428 - 1035",
    "nombre": "SAN MARCOS VILLA DEL LLANO - BARBOSA",
    "lng": -73.6259876205438,
    "lat": 5.92745197484131
  },
  {
    "ogc_fid": 552,
    "cig": "1457 - 1035",
    "nombre": "PLAN DE LOS 33 - BARBOSA",
    "lng": -73.62442784518205,
    "lat": 5.92269914146344
  },
  {
    "ogc_fid": 553,
    "cig": "1427 - 1035",
    "nombre": "GAITAN - BARBOSA",
    "lng": -73.62276978510528,
    "lat": 5.927534546663527
  },
  {
    "ogc_fid": 554,
    "cig": "1458 - 1035",
    "nombre": "URBANIZACION VILLA MARIA - BARBOSA",
    "lng": -73.62438434252911,
    "lat": 5.92463635771846
  },
  {
    "ogc_fid": 555,
    "cig": "1596 - 1035",
    "nombre": "VEREDA BAJO SEMISA - BARBOSA",
    "lng": -73.65392336585808,
    "lat": 5.907018709324995
  },
  {
    "ogc_fid": 556,
    "cig": "1790 - 1035",
    "nombre": "VEREDA ACO DE PENA BLANCA - BARBOSA",
    "lng": -73.658660472452,
    "lat": 5.960251398256809
  },
  {
    "ogc_fid": 557,
    "cig": "1477 - 1035",
    "nombre": "CENTRO POBLADO CITE - BARBOSA",
    "lng": -73.60320276888686,
    "lat": 5.964869558467143
  },
  {
    "ogc_fid": 558,
    "cig": "1473 - 1035",
    "nombre": "VEREDA CENTRO - BARBOSA",
    "lng": -73.60890884460406,
    "lat": 5.946266174485218
  },
  {
    "ogc_fid": 559,
    "cig": "1469 - 1035",
    "nombre": "VEREDA SANTA ROSA - BARBOSA",
    "lng": -73.59854099007764,
    "lat": 5.980907612735892
  },
  {
    "ogc_fid": 560,
    "cig": "1788 - 1035",
    "nombre": "VEREDA SAN VICENTE - BARBOSA",
    "lng": -73.64196354754853,
    "lat": 5.98449871865066
  },
  {
    "ogc_fid": 561,
    "cig": "1470 - 1035",
    "nombre": "VEREDA LA PALMA - BARBOSA",
    "lng": -73.6185818787873,
    "lat": 5.976287861731012
  },
  {
    "ogc_fid": 562,
    "cig": "1787 - 1035",
    "nombre": "VEREDA SAN PABLO - BARBOSA",
    "lng": -73.62622379973871,
    "lat": 5.995725895842093
  },
  {
    "ogc_fid": 563,
    "cig": "3850 - 1035",
    "nombre": "VEREDA SAN JOSE DE PARE - BARBOSA",
    "lng": -73.53239523296688,
    "lat": 5.991414953436133
  },
  {
    "ogc_fid": 564,
    "cig": "4003 - 1035",
    "nombre": "CENTRO POBLADO CRISTALES - BARBOSA",
    "lng": -73.63536027647747,
    "lat": 5.913902899910638
  },
  {
    "ogc_fid": 565,
    "cig": "4002 - 1035",
    "nombre": "CENTRO POBLADO BUENAVISTA - BARBOSA",
    "lng": -73.64634079627503,
    "lat": 5.932679635738126
  },
  {
    "ogc_fid": 566,
    "cig": "4004 - 1035",
    "nombre": "CENTRO POBLADO FRANCISCO DE PAULA - BARBOSA",
    "lng": -73.63548459167387,
    "lat": 5.932336191454035
  },
  {
    "ogc_fid": 567,
    "cig": "1456 - 1035",
    "nombre": "LUIS CARLOS GALAN - BARBOSA",
    "lng": -73.60645794919411,
    "lat": 5.946375586478045
  },
  {
    "ogc_fid": 568,
    "cig": "1519 - 1035",
    "nombre": "VEREDA SANTA ROSA - BARBOSA",
    "lng": -73.59819197821326,
    "lat": 6.002947960311702
  },
  {
    "ogc_fid": 569,
    "cig": "1809 - 1097",
    "nombre": "VEREDA ZARANDAS - CHIPATA",
    "lng": -73.67613695805375,
    "lat": 6.131428164556476
  },
  {
    "ogc_fid": 570,
    "cig": "1781 - 1097",
    "nombre": "VEREDA TUBAVITA - CHIPATA",
    "lng": -73.67010226977708,
    "lat": 6.025599979142414
  },
  {
    "ogc_fid": 571,
    "cig": "1802 - 1097",
    "nombre": "VEREDA PENA TAMBOR - CHIPATA",
    "lng": -73.68781862827903,
    "lat": 6.026213632315165
  },
  {
    "ogc_fid": 572,
    "cig": "1803 - 1097",
    "nombre": "VEREDA PALO BLANCO - CHIPATA",
    "lng": -73.70587587070892,
    "lat": 6.042963760493625
  },
  {
    "ogc_fid": 573,
    "cig": "1784 - 1097",
    "nombre": "VEREDA LOMALTA - CHIPATA",
    "lng": -73.64063460350476,
    "lat": 6.016065696183461
  },
  {
    "ogc_fid": 574,
    "cig": "1782 - 1097",
    "nombre": "VEREDA LA PALMERA - CHIPATA",
    "lng": -73.6573804542796,
    "lat": 6.018843798316838
  },
  {
    "ogc_fid": 575,
    "cig": "1592 - 1097",
    "nombre": "VEREDA CASAS BLANCAS - CHIPATA",
    "lng": -73.61294160694915,
    "lat": 6.130085614213662
  },
  {
    "ogc_fid": 576,
    "cig": "1480 - 1097",
    "nombre": "VEREDA SAN MIGUEL - CHIPATA",
    "lng": -73.61797350509693,
    "lat": 6.100670367704017
  },
  {
    "ogc_fid": 577,
    "cig": "1487 - 1097",
    "nombre": "VEREDA TOROBA - CHIPATA",
    "lng": -73.61980428291689,
    "lat": 6.031418058129346
  },
  {
    "ogc_fid": 578,
    "cig": "1488 - 1097",
    "nombre": "VEREDA MIRABUENOS - CHIPATA",
    "lng": -73.64312032671782,
    "lat": 6.028991365133391
  },
  {
    "ogc_fid": 579,
    "cig": "1479 - 1097",
    "nombre": "VEREDA LLANO DE SAN JUAN - CHIPATA",
    "lng": -73.63970296655312,
    "lat": 6.112483287746084
  },
  {
    "ogc_fid": 580,
    "cig": "1512 - 1097",
    "nombre": "VEREDA SAN ISIDRO - CHIPATA",
    "lng": -73.57841534662569,
    "lat": 6.05417338085802
  },
  {
    "ogc_fid": 581,
    "cig": "1594 - 1097",
    "nombre": "VEREDA EL HATO - CHIPATA",
    "lng": -73.58391569055725,
    "lat": 6.106660026367331
  },
  {
    "ogc_fid": 582,
    "cig": "1481 - 1097",
    "nombre": "VEREDA SALITRE SECO - CHIPATA",
    "lng": -73.59814280897379,
    "lat": 6.085335764553167
  },
  {
    "ogc_fid": 583,
    "cig": "1804 - 1097",
    "nombre": "VEREDA GAITAL - CHIPATA",
    "lng": -73.68227637698958,
    "lat": 6.084958341026592
  },
  {
    "ogc_fid": 584,
    "cig": "1491 - 1097",
    "nombre": "VEREDA BATAN - CHIPATA",
    "lng": -73.67162133987937,
    "lat": 6.0507037227666105
  },
  {
    "ogc_fid": 585,
    "cig": "1490 - 1097",
    "nombre": "VEREDA TUBAVITA - CHIPATA",
    "lng": -73.67115619497437,
    "lat": 6.0386536623251486
  },
  {
    "ogc_fid": 586,
    "cig": "1483 - 1097",
    "nombre": "VEREDA TIERRA NEGRA - CHIPATA",
    "lng": -73.60319265263125,
    "lat": 6.066417545937078
  },
  {
    "ogc_fid": 587,
    "cig": "1489 - 1097",
    "nombre": "VEREDA CENTRO - CHIPATA",
    "lng": -73.64363067287324,
    "lat": 6.044249494403162
  },
  {
    "ogc_fid": 588,
    "cig": "1482 - 1097",
    "nombre": "VEREDA MULATAL - CHIPATA",
    "lng": -73.64215791130239,
    "lat": 6.082886405206744
  },
  {
    "ogc_fid": 589,
    "cig": "1626 - 1097",
    "nombre": "VEREDA NOVILLERO - CHIPATA",
    "lng": -73.56332865553871,
    "lat": 6.071837027848439
  },
  {
    "ogc_fid": 590,
    "cig": "1486 - 1097",
    "nombre": "CHIPATA URBANO - CHIPATA",
    "lng": -73.63741043722676,
    "lat": 6.062707268239951
  },
  {
    "ogc_fid": 591,
    "cig": "1484 - 1097",
    "nombre": "VEREDA EL PAPAYO - CHIPATA",
    "lng": -73.660631990891,
    "lat": 6.067716790576405
  },
  {
    "ogc_fid": 592,
    "cig": "1485 - 1097",
    "nombre": "VEREDA EL HATILLO - CHIPATA",
    "lng": -73.61941292353602,
    "lat": 6.052588522430906
  },
  {
    "ogc_fid": 593,
    "cig": "3850 - 1106",
    "nombre": "VEREDA SAN JOSE DE PARE - SAN BENITO",
    "lng": -73.53239523296688,
    "lat": 5.991414953436133
  },
  {
    "ogc_fid": 594,
    "cig": "4054 - 1106",
    "nombre": "CENTRO POBLADO LA CARRERA - SAN BENITO",
    "lng": -73.53664324692228,
    "lat": 6.08593047488304
  },
  {
    "ogc_fid": 595,
    "cig": "4055 - 1106",
    "nombre": "CENTRO POBLADO LAS CASITAS - SAN BENITO",
    "lng": -73.54516006613855,
    "lat": 6.080337664313169
  },
  {
    "ogc_fid": 596,
    "cig": "1593 - 1106",
    "nombre": "VEREDA EL AMARILLO - SAN BENITO",
    "lng": -73.5689608873017,
    "lat": 6.122707634594758
  },
  {
    "ogc_fid": 597,
    "cig": "1589 - 1106",
    "nombre": "VEREDA CARRERO - SAN BENITO",
    "lng": -73.5670933950796,
    "lat": 6.142602723926007
  },
  {
    "ogc_fid": 598,
    "cig": "1633 - 1106",
    "nombre": "VEREDA JUNTAS - SAN BENITO",
    "lng": -73.48821857834531,
    "lat": 6.148418638902888
  },